[
  {
    "name": "The Great Kabab Factory",
    "description": "Delicious General cuisine",
    "cuisine": "General",
    "latitude": 12.9946821,
    "longitude": 80.1874068,
    "address": "Chennai",
    "rating": 4.8,
    "delivery_time": 28,
    "delivery_fee": 2.3,
    "is_open": true,
    "phone": "",
    "website": "",
    "image": "https://images.unsplash.com/photo-1546393168?w=800&q=80"
  },
  {
    "name": "Tangerine",
    "description": "Delicious General cuisine",
    "cuisine": "General",
    "latitude": 13.0392554,
    "longitude": 80.2556216,
    "address": "Chennai",
    "rating": 4.4,
    "delivery_time": 24,
    "delivery_fee": 1.9,
    "is_open": true,
    "phone": "",
    "website": "",
    "image": "https://images.unsplash.com/photo-1567390974?w=800&q=80"
  },
  {
    "name": "Ente Keralam",
    "description": "Delicious General cuisine",
    "cuisine": "General",
    "latitude": 13.0421141,
    "longitude": 80.2558968,
    "address": "Chennai",
    "rating": 4.1,
    "delivery_time": 21,
    "delivery_fee": 1.6,
    "is_open": true,
    "phone": "",
    "website": "",
    "image": "https://images.unsplash.com/photo-1594581031?w=800&q=80"
  },
  {
    "name": "Suriyas",
    "description": "Delicious General cuisine",
    "cuisine": "General",
    "latitude": 13.0383186,
    "longitude": 80.2566708,
    "address": "Chennai",
    "rating": 4.3,
    "delivery_time": 33,
    "delivery_fee": 2.8,
    "is_open": true,
    "phone": "",
    "website": "",
    "image": "https://images.unsplash.com/photo-1588514423?w=800&q=80"
  },
  {
    "name": "Ananda",
    "description": "Delicious General cuisine",
    "cuisine": "General",
    "latitude": 13.0391641,
    "longitude": 80.247219,
    "address": "Chennai",
    "rating": 4.9,
    "delivery_time": 39,
    "delivery_fee": 3.4,
    "is_open": true,
    "phone": "",
    "website": "",
    "image": "https://images.unsplash.com/photo-1566361549?w=800&q=80"
  },
  {
    "name": "Midnight Express",
    "description": "Delicious General cuisine",
    "cuisine": "General",
    "latitude": 13.0409358,
    "longitude": 80.2586973,
    "address": "Chennai",
    "rating": 4.1,
    "delivery_time": 21,
    "delivery_fee": 1.6,
    "is_open": true,
    "phone": "",
    "website": "",
    "image": "https://images.unsplash.com/photo-1548759171?w=800&q=80"
  },
  {
    "name": "Saravana Bhavan",
    "description": "Delicious Indian cuisine",
    "cuisine": "Indian",
    "latitude": 13.0345162,
    "longitude": 80.2690082,
    "address": "70 North Mada Street, Chennai",
    "rating": 4.7,
    "delivery_time": 27,
    "delivery_fee": 2.2,
    "is_open": true,
    "phone": "04424615588",
    "website": "",
    "image": "https://images.unsplash.com/photo-1527097677?w=800&q=80"
  },
  {
    "name": "Pizza Hut",
    "description": "Open: 11:00-23:00",
    "cuisine": "Pizza",
    "latitude": 13.0055904,
    "longitude": 80.251822,
    "address": "Chennai",
    "rating": 4.6,
    "delivery_time": 26,
    "delivery_fee": 2.1,
    "is_open": true,
    "phone": "",
    "website": "",
    "image": "https://images.unsplash.com/photo-1543768236?w=800&q=80"
  },
  {
    "name": "Cafe Coffee Day",
    "description": "Delicious Coffee Shop cuisine",
    "cuisine": "Coffee Shop",
    "latitude": 12.9998739,
    "longitude": 80.2518509,
    "address": "Chennai",
    "rating": 4.2,
    "delivery_time": 42,
    "delivery_fee": 3.7,
    "is_open": true,
    "phone": "",
    "website": "",
    "image": "https://images.unsplash.com/photo-1557864132?w=800&q=80"
  },
  {
    "name": "Planet Yumm",
    "description": "Delicious Non-Veg cuisine",
    "cuisine": "Non-Veg",
    "latitude": 12.9969184,
    "longitude": 80.2713903,
    "address": "Chennai",
    "rating": 4.1,
    "delivery_time": 21,
    "delivery_fee": 1.6,
    "is_open": true,
    "phone": "",
    "website": "",
    "image": "https://images.unsplash.com/photo-1574607431?w=800&q=80"
  },
  {
    "name": "Basera",
    "description": "Delicious Indian cuisine",
    "cuisine": "Indian",
    "latitude": 12.9329807,
    "longitude": 80.2517763,
    "address": "Chennai",
    "rating": 4.0,
    "delivery_time": 30,
    "delivery_fee": 2.5,
    "is_open": true,
    "phone": "",
    "website": "",
    "image": "https://images.unsplash.com/photo-1572107160?w=800&q=80"
  },
  {
    "name": "Ladies Mess",
    "description": "Delicious General cuisine",
    "cuisine": "General",
    "latitude": 12.9875968,
    "longitude": 80.2422869,
    "address": "Chennai",
    "rating": 4.6,
    "delivery_time": 26,
    "delivery_fee": 2.1,
    "is_open": true,
    "phone": "",
    "website": "",
    "image": "https://images.unsplash.com/photo-1500400356?w=800&q=80"
  },
  {
    "name": "Maami's Mess",
    "description": "Delicious Veg cuisine",
    "cuisine": "Veg",
    "latitude": 13.0324107,
    "longitude": 80.2704268,
    "address": "Chennai",
    "rating": 4.3,
    "delivery_time": 23,
    "delivery_fee": 1.8,
    "is_open": true,
    "phone": "",
    "website": "",
    "image": "https://images.unsplash.com/photo-1508884493?w=800&q=80"
  },
  {
    "name": "Mayilai Sri Karpagambal Mess",
    "description": "Delicious Veg cuisine",
    "cuisine": "Veg",
    "latitude": 13.0327388,
    "longitude": 80.2712197,
    "address": "Chennai",
    "rating": 4.8,
    "delivery_time": 48,
    "delivery_fee": 4.3,
    "is_open": true,
    "phone": "",
    "website": "",
    "image": "https://images.unsplash.com/photo-1539431098?w=800&q=80"
  },
  {
    "name": "Sangeetha",
    "description": "Delicious Veg cuisine",
    "cuisine": "Veg",
    "latitude": 13.0323689,
    "longitude": 80.2676459,
    "address": "Chennai",
    "rating": 4.5,
    "delivery_time": 45,
    "delivery_fee": 4.0,
    "is_open": true,
    "phone": "",
    "website": "",
    "image": "https://images.unsplash.com/photo-1524297755?w=800&q=80"
  },
  {
    "name": "Vasantha Bhavan",
    "description": "Delicious General cuisine",
    "cuisine": "General",
    "latitude": 13.0322517,
    "longitude": 80.2685043,
    "address": "Chennai",
    "rating": 4.0,
    "delivery_time": 30,
    "delivery_fee": 2.5,
    "is_open": true,
    "phone": "",
    "website": "",
    "image": "https://images.unsplash.com/photo-1581227720?w=800&q=80"
  },
  {
    "name": "Adyar Ananda Bhavan",
    "description": "Delicious Regional cuisine",
    "cuisine": "Regional",
    "latitude": 13.0340003,
    "longitude": 80.2677522,
    "address": "RK Mutt Road, Chennai",
    "rating": 4.3,
    "delivery_time": 43,
    "delivery_fee": 3.8,
    "is_open": true,
    "phone": "+91 44 2345 3031",
    "website": "https://aabsweets.com",
    "image": "https://images.unsplash.com/photo-1595872943?w=800&q=80"
  },
  {
    "name": "Rayer Mess",
    "description": "Delicious General cuisine",
    "cuisine": "General",
    "latitude": 13.0355223,
    "longitude": 80.273014,
    "address": "Chennai",
    "rating": 4.0,
    "delivery_time": 30,
    "delivery_fee": 2.5,
    "is_open": true,
    "phone": "",
    "website": "",
    "image": "https://images.unsplash.com/photo-1586252760?w=800&q=80"
  },
  {
    "name": "Benjarong",
    "description": "Delicious General cuisine",
    "cuisine": "General",
    "latitude": 13.0313113,
    "longitude": 80.2513502,
    "address": "Chennai",
    "rating": 4.1,
    "delivery_time": 21,
    "delivery_fee": 1.6,
    "is_open": true,
    "phone": "",
    "website": "",
    "image": "https://images.unsplash.com/photo-1516315791?w=800&q=80"
  },
  {
    "name": "Okadeys",
    "description": "Delicious General cuisine",
    "cuisine": "General",
    "latitude": 13.0384527,
    "longitude": 80.2567668,
    "address": "Chennai",
    "rating": 4.3,
    "delivery_time": 43,
    "delivery_fee": 3.8,
    "is_open": true,
    "phone": "",
    "website": "",
    "image": "https://images.unsplash.com/photo-1525240003?w=800&q=80"
  },
  {
    "name": "Amaravati",
    "description": "Delicious General cuisine",
    "cuisine": "General",
    "latitude": 13.0451417,
    "longitude": 80.2592552,
    "address": "Chennai",
    "rating": 4.1,
    "delivery_time": 41,
    "delivery_fee": 3.6,
    "is_open": true,
    "phone": "",
    "website": "",
    "image": "https://images.unsplash.com/photo-1518863161?w=800&q=80"
  },
  {
    "name": "Kalpaka",
    "description": "Delicious General cuisine",
    "cuisine": "General",
    "latitude": 13.0468725,
    "longitude": 80.2605083,
    "address": "Chennai",
    "rating": 4.4,
    "delivery_time": 24,
    "delivery_fee": 1.9,
    "is_open": true,
    "phone": "",
    "website": "",
    "image": "https://images.unsplash.com/photo-1538838694?w=800&q=80"
  },
  {
    "name": "Madras Cafe",
    "description": "Delicious General cuisine",
    "cuisine": "General",
    "latitude": 13.0008164,
    "longitude": 80.2043612,
    "address": "Chennai",
    "rating": 4.9,
    "delivery_time": 29,
    "delivery_fee": 2.4,
    "is_open": true,
    "phone": "",
    "website": "",
    "image": "https://images.unsplash.com/photo-1591172039?w=800&q=80"
  },
  {
    "name": "Little Italy",
    "description": "Delicious General cuisine",
    "cuisine": "General",
    "latitude": 13.0609985,
    "longitude": 80.2475712,
    "address": "Chennai",
    "rating": 4.9,
    "delivery_time": 29,
    "delivery_fee": 2.4,
    "is_open": true,
    "phone": "",
    "website": "",
    "image": "https://images.unsplash.com/photo-1556538499?w=800&q=80"
  },
  {
    "name": "Mainland China",
    "description": "Delicious General cuisine",
    "cuisine": "General",
    "latitude": 13.0659169,
    "longitude": 80.2421706,
    "address": "Chennai",
    "rating": 4.1,
    "delivery_time": 31,
    "delivery_fee": 2.6,
    "is_open": true,
    "phone": "",
    "website": "",
    "image": "https://images.unsplash.com/photo-1546866801?w=800&q=80"
  },
  {
    "name": "Novelty",
    "description": "Open: PH,Mo-Su 12:00-22:30",
    "cuisine": "General",
    "latitude": 13.0889622,
    "longitude": 80.2790177,
    "address": "Chennai",
    "rating": 4.3,
    "delivery_time": 23,
    "delivery_fee": 1.8,
    "is_open": true,
    "phone": "",
    "website": "",
    "image": "https://images.unsplash.com/photo-1561471003?w=800&q=80"
  },
  {
    "name": "Annapurna",
    "description": "Delicious General cuisine",
    "cuisine": "General",
    "latitude": 13.0747305,
    "longitude": 80.2626235,
    "address": "Chennai",
    "rating": 4.2,
    "delivery_time": 22,
    "delivery_fee": 1.7,
    "is_open": true,
    "phone": "",
    "website": "",
    "image": "https://images.unsplash.com/photo-1579623162?w=800&q=80"
  },
  {
    "name": "Barbecue Nation",
    "description": "Delicious General cuisine",
    "cuisine": "General",
    "latitude": 13.0454388,
    "longitude": 80.2331563,
    "address": "Chennai",
    "rating": 4.8,
    "delivery_time": 38,
    "delivery_fee": 3.3,
    "is_open": true,
    "phone": "",
    "website": "",
    "image": "https://images.unsplash.com/photo-1588179598?w=800&q=80"
  },
  {
    "name": "Sparkys Diner",
    "description": "Delicious General cuisine",
    "cuisine": "General",
    "latitude": 13.0729298,
    "longitude": 80.2526113,
    "address": "Chennai",
    "rating": 4.4,
    "delivery_time": 24,
    "delivery_fee": 1.9,
    "is_open": true,
    "phone": "",
    "website": "",
    "image": "https://images.unsplash.com/photo-1504855914?w=800&q=80"
  },
  {
    "name": "Haldiram's",
    "description": "Delicious Indian cuisine",
    "cuisine": "Indian",
    "latitude": 13.0453726,
    "longitude": 80.2669904,
    "address": "Chennai",
    "rating": 4.0,
    "delivery_time": 30,
    "delivery_fee": 2.5,
    "is_open": true,
    "phone": "",
    "website": "",
    "image": "https://images.unsplash.com/photo-1575374710?w=800&q=80"
  },
  {
    "name": "Maharaja",
    "description": "Delicious General cuisine",
    "cuisine": "General",
    "latitude": 13.0633479,
    "longitude": 80.2739101,
    "address": "Chennai",
    "rating": 4.0,
    "delivery_time": 30,
    "delivery_fee": 2.5,
    "is_open": true,
    "phone": "",
    "website": "",
    "image": "https://images.unsplash.com/photo-1513879600?w=800&q=80"
  },
  {
    "name": "Don Pepe, Copper Chimney",
    "description": "Delicious General cuisine",
    "cuisine": "General",
    "latitude": 13.0458581,
    "longitude": 80.258173,
    "address": "Chennai",
    "rating": 4.7,
    "delivery_time": 27,
    "delivery_fee": 2.2,
    "is_open": true,
    "phone": "",
    "website": "",
    "image": "https://images.unsplash.com/photo-1562144927?w=800&q=80"
  },
  {
    "name": "Paneer soda shop",
    "description": "Delicious General cuisine",
    "cuisine": "General",
    "latitude": 13.0322882,
    "longitude": 80.2709135,
    "address": "Chennai",
    "rating": 4.8,
    "delivery_time": 38,
    "delivery_fee": 3.3,
    "is_open": true,
    "phone": "",
    "website": "",
    "image": "https://images.unsplash.com/photo-1520039208?w=800&q=80"
  },
  {
    "name": "Corner Juice Shop",
    "description": "Delicious General cuisine",
    "cuisine": "General",
    "latitude": 13.0333788,
    "longitude": 80.2569388,
    "address": "Chennai",
    "rating": 4.3,
    "delivery_time": 33,
    "delivery_fee": 2.8,
    "is_open": true,
    "phone": "",
    "website": "",
    "image": "https://images.unsplash.com/photo-1558671953?w=800&q=80"
  },
  {
    "name": "Subway",
    "description": "Delicious Sandwich cuisine",
    "cuisine": "Sandwich",
    "latitude": 13.0614085,
    "longitude": 80.2487161,
    "address": "Chennai",
    "rating": 4.7,
    "delivery_time": 27,
    "delivery_fee": 2.2,
    "is_open": true,
    "phone": "",
    "website": "",
    "image": "https://images.unsplash.com/photo-1552288327?w=800&q=80"
  },
  {
    "name": "Wangs Kitchen",
    "description": "Delicious General cuisine",
    "cuisine": "General",
    "latitude": 13.0610272,
    "longitude": 80.2481523,
    "address": "Chennai",
    "rating": 4.6,
    "delivery_time": 26,
    "delivery_fee": 2.1,
    "is_open": true,
    "phone": "",
    "website": "",
    "image": "https://images.unsplash.com/photo-1584739336?w=800&q=80"
  },
  {
    "name": "Casa Picola",
    "description": "Delicious General cuisine",
    "cuisine": "General",
    "latitude": 13.0607599,
    "longitude": 80.2512477,
    "address": "Chennai",
    "rating": 4.2,
    "delivery_time": 22,
    "delivery_fee": 1.7,
    "is_open": true,
    "phone": "",
    "website": "",
    "image": "https://images.unsplash.com/photo-1517315172?w=800&q=80"
  },
  {
    "name": "Barista",
    "description": "Delicious Coffee Shop cuisine",
    "cuisine": "Coffee Shop",
    "latitude": 13.0607136,
    "longitude": 80.2509829,
    "address": "Chennai",
    "rating": 4.3,
    "delivery_time": 43,
    "delivery_fee": 3.8,
    "is_open": true,
    "phone": "",
    "website": "",
    "image": "https://images.unsplash.com/photo-1581678013?w=800&q=80"
  },
  {
    "name": "Domino's",
    "description": "Delicious Pizza cuisine",
    "cuisine": "Pizza",
    "latitude": 13.0354864,
    "longitude": 80.2496631,
    "address": "Chennai",
    "rating": 4.4,
    "delivery_time": 24,
    "delivery_fee": 1.9,
    "is_open": true,
    "phone": "",
    "website": "",
    "image": "https://images.unsplash.com/photo-1506618364?w=800&q=80"
  },
  {
    "name": "US Pizza",
    "description": "Delicious General cuisine",
    "cuisine": "General",
    "latitude": 13.0368042,
    "longitude": 80.2553943,
    "address": "Chennai",
    "rating": 4.9,
    "delivery_time": 39,
    "delivery_fee": 3.4,
    "is_open": true,
    "phone": "",
    "website": "",
    "image": "https://images.unsplash.com/photo-1525149079?w=800&q=80"
  },
  {
    "name": "The Wanton",
    "description": "Delicious General cuisine",
    "cuisine": "General",
    "latitude": 13.0308675,
    "longitude": 80.2547014,
    "address": "Chennai",
    "rating": 4.7,
    "delivery_time": 37,
    "delivery_fee": 3.2,
    "is_open": true,
    "phone": "",
    "website": "",
    "image": "https://images.unsplash.com/photo-1596655657?w=800&q=80"
  },
  {
    "name": "Bombay Halwa House",
    "description": "Delicious General cuisine",
    "cuisine": "General",
    "latitude": 13.0383754,
    "longitude": 80.2674307,
    "address": "Chennai",
    "rating": 4.6,
    "delivery_time": 36,
    "delivery_fee": 3.1,
    "is_open": true,
    "phone": "",
    "website": "",
    "image": "https://images.unsplash.com/photo-1538303526?w=800&q=80"
  },
  {
    "name": "Mathsya",
    "description": "Authentic Food. Affordable. Try French Onion Soup on Tuesdays",
    "cuisine": "Vegetarian",
    "latitude": 13.0750359,
    "longitude": 80.2581673,
    "address": "Chennai",
    "rating": 4.6,
    "delivery_time": 26,
    "delivery_fee": 2.1,
    "is_open": true,
    "phone": "",
    "website": "",
    "image": "https://images.unsplash.com/photo-1504908286?w=800&q=80"
  },
  {
    "name": "Marrybrown",
    "description": "Delicious Malaysian cuisine",
    "cuisine": "Malaysian",
    "latitude": 13.0717985,
    "longitude": 80.2029951,
    "address": "Chennai",
    "rating": 4.4,
    "delivery_time": 34,
    "delivery_fee": 2.9,
    "is_open": true,
    "phone": "",
    "website": "",
    "image": "https://images.unsplash.com/photo-1503442394?w=800&q=80"
  },
  {
    "name": "Hotel Sangeetha",
    "description": "Delicious Veg cuisine",
    "cuisine": "Veg",
    "latitude": 13.0717149,
    "longitude": 80.2030895,
    "address": "Chennai",
    "rating": 4.7,
    "delivery_time": 47,
    "delivery_fee": 4.2,
    "is_open": true,
    "phone": "",
    "website": "",
    "image": "https://images.unsplash.com/photo-1587920927?w=800&q=80"
  },
  {
    "name": "Ajnabee Snacks",
    "description": "Delicious General cuisine",
    "cuisine": "General",
    "latitude": 13.0677438,
    "longitude": 80.2566293,
    "address": "Chennai",
    "rating": 4.7,
    "delivery_time": 27,
    "delivery_fee": 2.2,
    "is_open": true,
    "phone": "",
    "website": "",
    "image": "https://images.unsplash.com/photo-1525884977?w=800&q=80"
  },
  {
    "name": "Asli Punjabi Rasoi Ghar",
    "description": "Delicious General cuisine",
    "cuisine": "General",
    "latitude": 13.0650516,
    "longitude": 80.2589124,
    "address": "Chennai",
    "rating": 4.0,
    "delivery_time": 40,
    "delivery_fee": 3.5,
    "is_open": true,
    "phone": "",
    "website": "",
    "image": "https://images.unsplash.com/photo-1534005430?w=800&q=80"
  },
  {
    "name": "Noodle House",
    "description": "Delicious General cuisine",
    "cuisine": "General",
    "latitude": 13.0654928,
    "longitude": 80.2431296,
    "address": "Chennai",
    "rating": 4.7,
    "delivery_time": 27,
    "delivery_fee": 2.2,
    "is_open": true,
    "phone": "",
    "website": "",
    "image": "https://images.unsplash.com/photo-1596695177?w=800&q=80"
  },
  {
    "name": "Lemongrass",
    "description": "Delicious Chinese cuisine",
    "cuisine": "Chinese",
    "latitude": 13.0287554,
    "longitude": 80.253254,
    "address": "Chennai",
    "rating": 4.6,
    "delivery_time": 46,
    "delivery_fee": 4.1,
    "is_open": true,
    "phone": "",
    "website": "",
    "image": "https://images.unsplash.com/photo-1510837466?w=800&q=80"
  },
  {
    "name": "Grains of Paradise",
    "description": "Delicious North Indian cuisine",
    "cuisine": "North Indian",
    "latitude": 13.0276871,
    "longitude": 80.2526956,
    "address": "Chennai",
    "rating": 4.8,
    "delivery_time": 38,
    "delivery_fee": 3.3,
    "is_open": true,
    "phone": "",
    "website": "",
    "image": "https://images.unsplash.com/photo-1577333098?w=800&q=80"
  },
  {
    "name": "Anokhi",
    "description": "Delicious Cafe cuisine",
    "cuisine": "Cafe",
    "latitude": 13.0285657,
    "longitude": 80.2503649,
    "address": "Chennai",
    "rating": 4.7,
    "delivery_time": 47,
    "delivery_fee": 4.2,
    "is_open": true,
    "phone": "",
    "website": "",
    "image": "https://images.unsplash.com/photo-1542779047?w=800&q=80"
  },
  {
    "name": "Cream Centre",
    "description": "Delicious North Indian cuisine",
    "cuisine": "North Indian",
    "latitude": 13.026914,
    "longitude": 80.2556765,
    "address": "Chennai",
    "rating": 4.9,
    "delivery_time": 39,
    "delivery_fee": 3.4,
    "is_open": true,
    "phone": "",
    "website": "",
    "image": "https://images.unsplash.com/photo-1537046169?w=800&q=80"
  },
  {
    "name": "In Seoul",
    "description": "Delicious Korean cuisine",
    "cuisine": "Korean",
    "latitude": 13.0321755,
    "longitude": 80.2521158,
    "address": "Chennai",
    "rating": 4.7,
    "delivery_time": 47,
    "delivery_fee": 4.2,
    "is_open": true,
    "phone": "",
    "website": "",
    "image": "https://images.unsplash.com/photo-1511110647?w=800&q=80"
  },
  {
    "name": "The Crown",
    "description": "Delicious General cuisine",
    "cuisine": "General",
    "latitude": 13.0403208,
    "longitude": 80.2437255,
    "address": "Chennai",
    "rating": 4.0,
    "delivery_time": 20,
    "delivery_fee": 1.5,
    "is_open": true,
    "phone": "",
    "website": "",
    "image": "https://images.unsplash.com/photo-1545167150?w=800&q=80"
  },
  {
    "name": "Paprika",
    "description": "Delicious General cuisine",
    "cuisine": "General",
    "latitude": 13.0460421,
    "longitude": 80.2476349,
    "address": "Chennai",
    "rating": 4.9,
    "delivery_time": 29,
    "delivery_fee": 2.4,
    "is_open": true,
    "phone": "",
    "website": "",
    "image": "https://images.unsplash.com/photo-1581542249?w=800&q=80"
  },
  {
    "name": "Aqua",
    "description": "Delicious General cuisine",
    "cuisine": "General",
    "latitude": 13.0529661,
    "longitude": 80.2500813,
    "address": "Chennai",
    "rating": 4.3,
    "delivery_time": 43,
    "delivery_fee": 3.8,
    "is_open": true,
    "phone": "",
    "website": "",
    "image": "https://images.unsplash.com/photo-1592581183?w=800&q=80"
  },
  {
    "name": "Lotus",
    "description": "Delicious Thai cuisine",
    "cuisine": "Thai",
    "latitude": 13.0528789,
    "longitude": 80.2498533,
    "address": "Chennai",
    "rating": 4.1,
    "delivery_time": 41,
    "delivery_fee": 3.6,
    "is_open": true,
    "phone": "",
    "website": "",
    "image": "https://images.unsplash.com/photo-1592090901?w=800&q=80"
  },
  {
    "name": "Hip Asia",
    "description": "Delicious General cuisine",
    "cuisine": "General",
    "latitude": 13.0630743,
    "longitude": 80.2612723,
    "address": "Chennai",
    "rating": 4.3,
    "delivery_time": 23,
    "delivery_fee": 1.8,
    "is_open": true,
    "phone": "",
    "website": "",
    "image": "https://images.unsplash.com/photo-1513550393?w=800&q=80"
  },
  {
    "name": "Akasaka",
    "description": "Delicious Japanese cuisine",
    "cuisine": "Japanese",
    "latitude": 12.9881641,
    "longitude": 80.2556827,
    "address": "Chennai",
    "rating": 4.3,
    "delivery_time": 43,
    "delivery_fee": 3.8,
    "is_open": true,
    "phone": "",
    "website": "",
    "image": "https://images.unsplash.com/photo-1509299533?w=800&q=80"
  },
  {
    "name": "Thaali Corner",
    "description": "Delicious General cuisine",
    "cuisine": "General",
    "latitude": 13.0851761,
    "longitude": 80.2447589,
    "address": "Chennai",
    "rating": 4.8,
    "delivery_time": 38,
    "delivery_fee": 3.3,
    "is_open": true,
    "phone": "",
    "website": "",
    "image": "https://images.unsplash.com/photo-1585474498?w=800&q=80"
  },
  {
    "name": "Cornucopia",
    "description": "Delicious General cuisine",
    "cuisine": "General",
    "latitude": 13.0307571,
    "longitude": 80.2457033,
    "address": "Chennai",
    "rating": 4.2,
    "delivery_time": 22,
    "delivery_fee": 1.7,
    "is_open": true,
    "phone": "",
    "website": "",
    "image": "https://images.unsplash.com/photo-1597642562?w=800&q=80"
  },
  {
    "name": "Dhaba Express",
    "description": "Delicious General cuisine",
    "cuisine": "General",
    "latitude": 13.0312456,
    "longitude": 80.2460431,
    "address": "Chennai",
    "rating": 4.6,
    "delivery_time": 36,
    "delivery_fee": 3.1,
    "is_open": true,
    "phone": "",
    "website": "",
    "image": "https://images.unsplash.com/photo-1512970196?w=800&q=80"
  },
  {
    "name": "Coffee Central",
    "description": "Delicious Cafe cuisine",
    "cuisine": "Cafe",
    "latitude": 13.0470673,
    "longitude": 80.2455216,
    "address": "Chennai",
    "rating": 4.2,
    "delivery_time": 22,
    "delivery_fee": 1.7,
    "is_open": true,
    "phone": "",
    "website": "",
    "image": "https://images.unsplash.com/photo-1587423372?w=800&q=80"
  },
  {
    "name": "Parvathi Bhavan",
    "description": "Delicious General cuisine",
    "cuisine": "General",
    "latitude": 13.0387921,
    "longitude": 80.2570003,
    "address": "Chennai",
    "rating": 4.8,
    "delivery_time": 28,
    "delivery_fee": 2.3,
    "is_open": true,
    "phone": "",
    "website": "",
    "image": "https://images.unsplash.com/photo-1537090698?w=800&q=80"
  },
  {
    "name": "Cilantro",
    "description": "Delicious General cuisine",
    "cuisine": "General",
    "latitude": 13.0064035,
    "longitude": 80.2057624,
    "address": "Chennai",
    "rating": 4.9,
    "delivery_time": 29,
    "delivery_fee": 2.4,
    "is_open": true,
    "phone": "",
    "website": "",
    "image": "https://images.unsplash.com/photo-1593642039?w=800&q=80"
  },
  {
    "name": "Navratna",
    "description": "Delicious North Indian cuisine",
    "cuisine": "North Indian",
    "latitude": 13.0062581,
    "longitude": 80.2057624,
    "address": "Chennai",
    "rating": 4.2,
    "delivery_time": 42,
    "delivery_fee": 3.7,
    "is_open": true,
    "phone": "",
    "website": "",
    "image": "https://images.unsplash.com/photo-1593070372?w=800&q=80"
  },
  {
    "name": "Kayal",
    "description": "Delicious Mediterranean cuisine",
    "cuisine": "Mediterranean",
    "latitude": 13.0061052,
    "longitude": 80.2057662,
    "address": "Chennai",
    "rating": 4.8,
    "delivery_time": 38,
    "delivery_fee": 3.3,
    "is_open": true,
    "phone": "",
    "website": "",
    "image": "https://images.unsplash.com/photo-1515216898?w=800&q=80"
  },
  {
    "name": "The Lobby Lounge",
    "description": "Delicious Cafe cuisine",
    "cuisine": "Cafe",
    "latitude": 13.0064818,
    "longitude": 80.2053411,
    "address": "Chennai",
    "rating": 4.2,
    "delivery_time": 22,
    "delivery_fee": 1.7,
    "is_open": true,
    "phone": "",
    "website": "",
    "image": "https://images.unsplash.com/photo-1508712792?w=800&q=80"
  },
  {
    "name": "Makkhan Sweets",
    "description": "Delicious General cuisine",
    "cuisine": "General",
    "latitude": 13.0311615,
    "longitude": 80.2459839,
    "address": "Chennai",
    "rating": 4.7,
    "delivery_time": 47,
    "delivery_fee": 4.2,
    "is_open": true,
    "phone": "",
    "website": "",
    "image": "https://images.unsplash.com/photo-1511389387?w=800&q=80"
  },
  {
    "name": "Food Village",
    "description": "Delicious General cuisine",
    "cuisine": "General",
    "latitude": 12.9278334,
    "longitude": 80.2521808,
    "address": "Chennai",
    "rating": 4.2,
    "delivery_time": 32,
    "delivery_fee": 2.7,
    "is_open": true,
    "phone": "",
    "website": "",
    "image": "https://images.unsplash.com/photo-1526923452?w=800&q=80"
  },
  {
    "name": "Qwikys",
    "description": "Delicious Cafe cuisine",
    "cuisine": "Cafe",
    "latitude": 12.9857701,
    "longitude": 80.2458097,
    "address": "Chennai",
    "rating": 4.5,
    "delivery_time": 25,
    "delivery_fee": 2.0,
    "is_open": true,
    "phone": "",
    "website": "",
    "image": "https://images.unsplash.com/photo-1544298015?w=800&q=80"
  },
  {
    "name": "Pupil",
    "description": "Delicious Fast Food cuisine",
    "cuisine": "Fast Food",
    "latitude": 13.0010132,
    "longitude": 80.2709043,
    "address": "Chennai",
    "rating": 4.5,
    "delivery_time": 45,
    "delivery_fee": 4.0,
    "is_open": true,
    "phone": "",
    "website": "",
    "image": "https://images.unsplash.com/photo-1506697195?w=800&q=80"
  },
  {
    "name": "By The Bay",
    "description": "Delicious General cuisine",
    "cuisine": "General",
    "latitude": 13.0012892,
    "longitude": 80.2712305,
    "address": "Elliots Beach Road, Chennai",
    "rating": 4.9,
    "delivery_time": 49,
    "delivery_fee": 4.4,
    "is_open": true,
    "phone": "",
    "website": "",
    "image": "https://images.unsplash.com/photo-1538325859?w=800&q=80"
  },
  {
    "name": "Cozee",
    "description": "Delicious Fast Food cuisine",
    "cuisine": "Fast Food",
    "latitude": 13.0010049,
    "longitude": 80.2708185,
    "address": "Chennai",
    "rating": 4.8,
    "delivery_time": 38,
    "delivery_fee": 3.3,
    "is_open": true,
    "phone": "",
    "website": "",
    "image": "https://images.unsplash.com/photo-1571762318?w=800&q=80"
  },
  {
    "name": "Tasty Jones",
    "description": "Delicious General cuisine",
    "cuisine": "General",
    "latitude": 13.0010216,
    "longitude": 80.2706983,
    "address": "Chennai",
    "rating": 4.5,
    "delivery_time": 45,
    "delivery_fee": 4.0,
    "is_open": true,
    "phone": "",
    "website": "",
    "image": "https://images.unsplash.com/photo-1585381215?w=800&q=80"
  },
  {
    "name": "Hotel Balaji",
    "description": "Delicious General cuisine",
    "cuisine": "General",
    "latitude": 13.00057,
    "longitude": 80.2662523,
    "address": "Chennai",
    "rating": 4.1,
    "delivery_time": 31,
    "delivery_fee": 2.6,
    "is_open": true,
    "phone": "",
    "website": "",
    "image": "https://images.unsplash.com/photo-1595889241?w=800&q=80"
  },
  {
    "name": "Eden",
    "description": "Delicious General cuisine",
    "cuisine": "General",
    "latitude": 12.9970909,
    "longitude": 80.2679346,
    "address": "Chennai",
    "rating": 4.7,
    "delivery_time": 27,
    "delivery_fee": 2.2,
    "is_open": true,
    "phone": "",
    "website": "",
    "image": "https://images.unsplash.com/photo-1502329147?w=800&q=80"
  },
  {
    "name": "Besant Fast Food",
    "description": "Delicious Fast Food cuisine",
    "cuisine": "Fast Food",
    "latitude": 13.0005366,
    "longitude": 80.2667244,
    "address": "Chennai",
    "rating": 4.3,
    "delivery_time": 33,
    "delivery_fee": 2.8,
    "is_open": true,
    "phone": "",
    "website": "",
    "image": "https://images.unsplash.com/photo-1553022183?w=800&q=80"
  },
  {
    "name": "Vasantha Bhavan Nama veedu",
    "description": "Delicious Veg cuisine",
    "cuisine": "Veg",
    "latitude": 13.0492377,
    "longitude": 80.207616,
    "address": "Chennai",
    "rating": 4.9,
    "delivery_time": 29,
    "delivery_fee": 2.4,
    "is_open": true,
    "phone": "",
    "website": "",
    "image": "https://images.unsplash.com/photo-1524710719?w=800&q=80"
  },
  {
    "name": "Fruit Shop on Greams Road",
    "description": "Delicious Fast Food cuisine",
    "cuisine": "Fast Food",
    "latitude": 13.060307,
    "longitude": 80.2546115,
    "address": "Chennai",
    "rating": 4.9,
    "delivery_time": 39,
    "delivery_fee": 3.4,
    "is_open": true,
    "phone": "",
    "website": "",
    "image": "https://images.unsplash.com/photo-1588435989?w=800&q=80"
  },
  {
    "name": "Hajiali Juice Centre",
    "description": "Delicious Fast Food cuisine",
    "cuisine": "Fast Food",
    "latitude": 13.0603857,
    "longitude": 80.254815,
    "address": "Chennai",
    "rating": 4.6,
    "delivery_time": 46,
    "delivery_fee": 4.1,
    "is_open": true,
    "phone": "",
    "website": "",
    "image": "https://images.unsplash.com/photo-1557562866?w=800&q=80"
  },
  {
    "name": "Sea Shell",
    "description": "Delicious Fast Food cuisine",
    "cuisine": "Fast Food",
    "latitude": 13.0574642,
    "longitude": 80.2551093,
    "address": "Chennai",
    "rating": 4.5,
    "delivery_time": 35,
    "delivery_fee": 3.0,
    "is_open": true,
    "phone": "",
    "website": "",
    "image": "https://images.unsplash.com/photo-1573838175?w=800&q=80"
  },
  {
    "name": "Hotel Runs",
    "description": "Delicious General cuisine",
    "cuisine": "General",
    "latitude": 13.00636,
    "longitude": 80.2548775,
    "address": "Chennai",
    "rating": 4.3,
    "delivery_time": 23,
    "delivery_fee": 1.8,
    "is_open": true,
    "phone": "",
    "website": "",
    "image": "https://images.unsplash.com/photo-1540025243?w=800&q=80"
  },
  {
    "name": "TOPSEE",
    "description": "Delicious Non-Veg cuisine",
    "cuisine": "Non-Veg",
    "latitude": 12.9986633,
    "longitude": 80.2563991,
    "address": "Chennai",
    "rating": 4.2,
    "delivery_time": 42,
    "delivery_fee": 3.7,
    "is_open": true,
    "phone": "",
    "website": "",
    "image": "https://images.unsplash.com/photo-1557261102?w=800&q=80"
  },
  {
    "name": "Aavin",
    "description": "Delicious Cafe cuisine",
    "cuisine": "Cafe",
    "latitude": 13.0671848,
    "longitude": 80.2057726,
    "address": "Chennai",
    "rating": 4.7,
    "delivery_time": 47,
    "delivery_fee": 4.2,
    "is_open": true,
    "phone": "",
    "website": "",
    "image": "https://images.unsplash.com/photo-1586420987?w=800&q=80"
  },
  {
    "name": "Dosa Cafe",
    "description": "Delicious Veg cuisine",
    "cuisine": "Veg",
    "latitude": 13.0671013,
    "longitude": 80.2050495,
    "address": "Chennai",
    "rating": 4.2,
    "delivery_time": 32,
    "delivery_fee": 2.7,
    "is_open": true,
    "phone": "",
    "website": "",
    "image": "https://images.unsplash.com/photo-1590715452?w=800&q=80"
  },
  {
    "name": "Hot Chips",
    "description": "Delicious Veg cuisine",
    "cuisine": "Veg",
    "latitude": 13.0670804,
    "longitude": 80.2062941,
    "address": "Chennai",
    "rating": 4.3,
    "delivery_time": 23,
    "delivery_fee": 1.8,
    "is_open": true,
    "phone": "",
    "website": "",
    "image": "https://images.unsplash.com/photo-1530340563?w=800&q=80"
  },
  {
    "name": "Hotchips",
    "description": "Delicious Veg cuisine",
    "cuisine": "Veg",
    "latitude": 13.00651,
    "longitude": 80.2442513,
    "address": "Chennai",
    "rating": 4.2,
    "delivery_time": 32,
    "delivery_fee": 2.7,
    "is_open": true,
    "phone": "",
    "website": "",
    "image": "https://images.unsplash.com/photo-1543170952?w=800&q=80"
  },
  {
    "name": "Sri Krishna Sweets",
    "description": "Delicious Veg cuisine",
    "cuisine": "Veg",
    "latitude": 13.049367,
    "longitude": 80.2099012,
    "address": "Chennai",
    "rating": 4.9,
    "delivery_time": 29,
    "delivery_fee": 2.4,
    "is_open": true,
    "phone": "",
    "website": "",
    "image": "https://images.unsplash.com/photo-1515574129?w=800&q=80"
  },
  {
    "name": "Sri Parvathy Bhavan",
    "description": "Delicious General cuisine",
    "cuisine": "General",
    "latitude": 13.052763,
    "longitude": 80.192033,
    "address": "Chennai",
    "rating": 4.1,
    "delivery_time": 21,
    "delivery_fee": 1.6,
    "is_open": true,
    "phone": "",
    "website": "",
    "image": "https://images.unsplash.com/photo-1570411981?w=800&q=80"
  },
  {
    "name": "Cafe Caffee Day",
    "description": "Delicious Cafe cuisine",
    "cuisine": "Cafe",
    "latitude": 13.0688594,
    "longitude": 80.2572278,
    "address": "Chennai",
    "rating": 4.3,
    "delivery_time": 43,
    "delivery_fee": 3.8,
    "is_open": true,
    "phone": "",
    "website": "",
    "image": "https://images.unsplash.com/photo-1521590883?w=800&q=80"
  },
  {
    "name": "Dosa the Restaurant",
    "description": "Delicious General cuisine",
    "cuisine": "General",
    "latitude": 12.9863717,
    "longitude": 80.2607741,
    "address": "Chennai",
    "rating": 4.5,
    "delivery_time": 35,
    "delivery_fee": 3.0,
    "is_open": true,
    "phone": "",
    "website": "",
    "image": "https://images.unsplash.com/photo-1541702205?w=800&q=80"
  },
  {
    "name": "Sri Annalaxmi Sweets and Snacks",
    "description": "Delicious Fast Food cuisine",
    "cuisine": "Fast Food",
    "latitude": 12.986194,
    "longitude": 80.2619161,
    "address": "Chennai",
    "rating": 4.2,
    "delivery_time": 42,
    "delivery_fee": 3.7,
    "is_open": true,
    "phone": "",
    "website": "",
    "image": "https://images.unsplash.com/photo-1547058332?w=800&q=80"
  },
  {
    "name": "Sangeeta",
    "description": "Delicious Indian cuisine",
    "cuisine": "Indian",
    "latitude": 13.0070874,
    "longitude": 80.2500834,
    "address": "Chennai",
    "rating": 4.2,
    "delivery_time": 42,
    "delivery_fee": 3.7,
    "is_open": true,
    "phone": "",
    "website": "",
    "image": "https://images.unsplash.com/photo-1543045322?w=800&q=80"
  },
  {
    "name": "Saravanaa Bhavan",
    "description": "Delicious Indian cuisine",
    "cuisine": "Indian",
    "latitude": 13.0940164,
    "longitude": 80.2926773,
    "address": "Chennai",
    "rating": 4.8,
    "delivery_time": 38,
    "delivery_fee": 3.3,
    "is_open": true,
    "phone": "",
    "website": "",
    "image": "https://images.unsplash.com/photo-1558994888?w=800&q=80"
  },
  {
    "name": "Hotel Raj Bhavan",
    "description": "Delicious General cuisine",
    "cuisine": "General",
    "latitude": 13.0558502,
    "longitude": 80.248,
    "address": "Chennai",
    "rating": 4.4,
    "delivery_time": 24,
    "delivery_fee": 1.9,
    "is_open": true,
    "phone": "",
    "website": "",
    "image": "https://images.unsplash.com/photo-1523697624?w=800&q=80"
  },
  {
    "name": "Sandys",
    "description": "Delicious Cafe cuisine",
    "cuisine": "Cafe",
    "latitude": 13.0610992,
    "longitude": 80.2482881,
    "address": "Chennai",
    "rating": 4.7,
    "delivery_time": 47,
    "delivery_fee": 4.2,
    "is_open": true,
    "phone": "",
    "website": "",
    "image": "https://images.unsplash.com/photo-1553330987?w=800&q=80"
  },
  {
    "name": "KFC",
    "description": "Delicious Chicken cuisine",
    "cuisine": "Chicken",
    "latitude": 13.0738558,
    "longitude": 80.2216203,
    "address": "Chennai",
    "rating": 4.2,
    "delivery_time": 22,
    "delivery_fee": 1.7,
    "is_open": true,
    "phone": "",
    "website": "",
    "image": "https://images.unsplash.com/photo-1542946852?w=800&q=80"
  },
  {
    "name": "McDonald's",
    "description": "Delicious Burger cuisine",
    "cuisine": "Burger",
    "latitude": 13.0738688,
    "longitude": 80.2214298,
    "address": "Chennai",
    "rating": 4.0,
    "delivery_time": 20,
    "delivery_fee": 1.5,
    "is_open": true,
    "phone": "",
    "website": "",
    "image": "https://images.unsplash.com/photo-1516724000?w=800&q=80"
  },
  {
    "name": "Dhaba",
    "description": "Delicious General cuisine",
    "cuisine": "General",
    "latitude": 13.0813079,
    "longitude": 80.2742022,
    "address": "Chennai",
    "rating": 4.3,
    "delivery_time": 33,
    "delivery_fee": 2.8,
    "is_open": true,
    "phone": "",
    "website": "",
    "image": "https://images.unsplash.com/photo-1592779423?w=800&q=80"
  },
  {
    "name": "Sangamam Chettinad Hotel",
    "description": "Open: Mo-Su 12:00-16:00, 19:00-23:00",
    "cuisine": "General",
    "latitude": 13.0349987,
    "longitude": 80.2163485,
    "address": "Door number 1 7th Avenue, Chennai",
    "rating": 4.7,
    "delivery_time": 37,
    "delivery_fee": 3.2,
    "is_open": true,
    "phone": "044 2489 1225",
    "website": "",
    "image": "https://images.unsplash.com/photo-1514496687?w=800&q=80"
  },
  {
    "name": "Anajappar",
    "description": "Delicious General cuisine",
    "cuisine": "General",
    "latitude": 13.0328373,
    "longitude": 80.212066,
    "address": "Chennai",
    "rating": 4.8,
    "delivery_time": 38,
    "delivery_fee": 3.3,
    "is_open": true,
    "phone": "",
    "website": "",
    "image": "https://images.unsplash.com/photo-1591193808?w=800&q=80"
  },
  {
    "name": "Shankara Bhavan",
    "description": "closed",
    "cuisine": "Indian",
    "latitude": 13.051775,
    "longitude": 80.2430546,
    "address": "Chennai",
    "rating": 4.1,
    "delivery_time": 41,
    "delivery_fee": 3.6,
    "is_open": true,
    "phone": "",
    "website": "",
    "image": "https://images.unsplash.com/photo-1513962401?w=800&q=80"
  },
  {
    "name": "Delhi Hotel",
    "description": "Delicious General cuisine",
    "cuisine": "General",
    "latitude": 13.0880874,
    "longitude": 80.2757144,
    "address": "Chennai",
    "rating": 4.5,
    "delivery_time": 35,
    "delivery_fee": 3.0,
    "is_open": true,
    "phone": "",
    "website": "",
    "image": "https://images.unsplash.com/photo-1554856975?w=800&q=80"
  },
  {
    "name": "Karaikudi",
    "description": "Delicious General cuisine",
    "cuisine": "General",
    "latitude": 13.0448865,
    "longitude": 80.2644988,
    "address": "Chennai",
    "rating": 4.6,
    "delivery_time": 36,
    "delivery_fee": 3.1,
    "is_open": true,
    "phone": "",
    "website": "",
    "image": "https://images.unsplash.com/photo-1530971916?w=800&q=80"
  },
  {
    "name": "Twilight Takeout",
    "description": "Delicious General cuisine",
    "cuisine": "General",
    "latitude": 13.0544491,
    "longitude": 80.2392199,
    "address": "Chennai",
    "rating": 4.4,
    "delivery_time": 44,
    "delivery_fee": 3.9,
    "is_open": true,
    "phone": "",
    "website": "",
    "image": "https://images.unsplash.com/photo-1550314674?w=800&q=80"
  },
  {
    "name": "Sagar Restaurant",
    "description": "Delicious General cuisine",
    "cuisine": "General",
    "latitude": 13.0083726,
    "longitude": 80.2106059,
    "address": "Chennai",
    "rating": 4.6,
    "delivery_time": 26,
    "delivery_fee": 2.1,
    "is_open": true,
    "phone": "",
    "website": "",
    "image": "https://images.unsplash.com/photo-1539106936?w=800&q=80"
  },
  {
    "name": "krishna bhavan",
    "description": "Delicious Fast Food cuisine",
    "cuisine": "Fast Food",
    "latitude": 13.0293344,
    "longitude": 80.2306558,
    "address": "Chennai",
    "rating": 4.1,
    "delivery_time": 21,
    "delivery_fee": 1.6,
    "is_open": true,
    "phone": "",
    "website": "",
    "image": "https://images.unsplash.com/photo-1572585021?w=800&q=80"
  },
  {
    "name": "shanmukas",
    "description": "Delicious General cuisine",
    "cuisine": "General",
    "latitude": 13.0277769,
    "longitude": 80.2308167,
    "address": "Chennai",
    "rating": 4.0,
    "delivery_time": 20,
    "delivery_fee": 1.5,
    "is_open": true,
    "phone": "",
    "website": "",
    "image": "https://images.unsplash.com/photo-1542531100?w=800&q=80"
  },
  {
    "name": "Al Reef Restaurant",
    "description": "Delicious General cuisine",
    "cuisine": "General",
    "latitude": 12.9712514,
    "longitude": 80.2583585,
    "address": "Chennai",
    "rating": 4.9,
    "delivery_time": 49,
    "delivery_fee": 4.4,
    "is_open": true,
    "phone": "",
    "website": "",
    "image": "https://images.unsplash.com/photo-1515595099?w=800&q=80"
  },
  {
    "name": "Kumarakom",
    "description": "Delicious Non-Veg cuisine",
    "cuisine": "Non-Veg",
    "latitude": 12.9721108,
    "longitude": 80.2190709,
    "address": "Chennai",
    "rating": 4.9,
    "delivery_time": 39,
    "delivery_fee": 3.4,
    "is_open": true,
    "phone": "",
    "website": "",
    "image": "https://images.unsplash.com/photo-1572555329?w=800&q=80"
  },
  {
    "name": "Top City",
    "description": "Delicious General cuisine",
    "cuisine": "General",
    "latitude": 12.8710593,
    "longitude": 80.2266785,
    "address": "Chennai",
    "rating": 4.7,
    "delivery_time": 37,
    "delivery_fee": 3.2,
    "is_open": true,
    "phone": "",
    "website": "",
    "image": "https://images.unsplash.com/photo-1541490367?w=800&q=80"
  },
  {
    "name": "Hotel Mathus",
    "description": "Delicious General cuisine",
    "cuisine": "General",
    "latitude": 12.9739862,
    "longitude": 80.2581256,
    "address": "Chennai",
    "rating": 4.5,
    "delivery_time": 25,
    "delivery_fee": 2.0,
    "is_open": true,
    "phone": "",
    "website": "",
    "image": "https://images.unsplash.com/photo-1551481455?w=800&q=80"
  },
  {
    "name": "Bella Ciao",
    "description": "Delicious General cuisine",
    "cuisine": "General",
    "latitude": 12.9721533,
    "longitude": 80.2648774,
    "address": "Chennai",
    "rating": 4.3,
    "delivery_time": 43,
    "delivery_fee": 3.8,
    "is_open": true,
    "phone": "",
    "website": "",
    "image": "https://images.unsplash.com/photo-1508602983?w=800&q=80"
  },
  {
    "name": "Supriya Andra Mess",
    "description": "Delicious General cuisine",
    "cuisine": "General",
    "latitude": 12.9821542,
    "longitude": 80.2326981,
    "address": "Chennai",
    "rating": 4.1,
    "delivery_time": 41,
    "delivery_fee": 3.6,
    "is_open": true,
    "phone": "",
    "website": "",
    "image": "https://images.unsplash.com/photo-1500684001?w=800&q=80"
  },
  {
    "name": "Punjabi Restaurant",
    "description": "Delicious General cuisine",
    "cuisine": "General",
    "latitude": 12.9822545,
    "longitude": 80.2327044,
    "address": "Chennai",
    "rating": 4.3,
    "delivery_time": 43,
    "delivery_fee": 3.8,
    "is_open": true,
    "phone": "",
    "website": "",
    "image": "https://images.unsplash.com/photo-1558872413?w=800&q=80"
  },
  {
    "name": "Hot Kitchen",
    "description": "Delicious Indian cuisine",
    "cuisine": "Indian",
    "latitude": 12.9086606,
    "longitude": 80.249748,
    "address": "78-79 East Costal Road, Chennai",
    "rating": 4.6,
    "delivery_time": 36,
    "delivery_fee": 3.1,
    "is_open": true,
    "phone": "",
    "website": "http://www.hotkitchenecr.com/",
    "image": "https://images.unsplash.com/photo-1575987666?w=800&q=80"
  },
  {
    "name": "Kipling Cafe",
    "description": "Delicious Thai cuisine",
    "cuisine": "Thai",
    "latitude": 12.8954312,
    "longitude": 80.2523229,
    "address": "14 L. Jey Avenue, Chennai",
    "rating": 4.9,
    "delivery_time": 49,
    "delivery_fee": 4.4,
    "is_open": true,
    "phone": "",
    "website": "",
    "image": "https://images.unsplash.com/photo-1507940439?w=800&q=80"
  },
  {
    "name": "Ponnusamy Hotel",
    "description": "Delicious Regional cuisine",
    "cuisine": "Regional",
    "latitude": 13.0131553,
    "longitude": 80.2227101,
    "address": "Anna Salai, Saidapet, Chennai",
    "rating": 4.2,
    "delivery_time": 42,
    "delivery_fee": 3.7,
    "is_open": true,
    "phone": "",
    "website": "https://www.ponnusamyhotels.com/",
    "image": "https://images.unsplash.com/photo-1503953442?w=800&q=80"
  },
  {
    "name": "Sip and Munch",
    "description": "Delicious Indian cuisine",
    "cuisine": "Indian",
    "latitude": 12.9810036,
    "longitude": 80.2298659,
    "address": "Chennai",
    "rating": 4.2,
    "delivery_time": 42,
    "delivery_fee": 3.7,
    "is_open": true,
    "phone": "",
    "website": "",
    "image": "https://images.unsplash.com/photo-1547520852?w=800&q=80"
  },
  {
    "name": "HUT",
    "description": "Delicious Coffee Shop cuisine",
    "cuisine": "Coffee Shop",
    "latitude": 13.0133683,
    "longitude": 80.23485,
    "address": "Chennai",
    "rating": 4.2,
    "delivery_time": 22,
    "delivery_fee": 1.7,
    "is_open": true,
    "phone": "",
    "website": "",
    "image": "https://images.unsplash.com/photo-1596098882?w=800&q=80"
  },
  {
    "name": "FunkJazz",
    "description": "Delicious Sandwich cuisine",
    "cuisine": "Sandwich",
    "latitude": 13.0014275,
    "longitude": 80.2713271,
    "address": "Chennai",
    "rating": 4.8,
    "delivery_time": 38,
    "delivery_fee": 3.3,
    "is_open": true,
    "phone": "",
    "website": "",
    "image": "https://images.unsplash.com/photo-1530620898?w=800&q=80"
  },
  {
    "name": "Cascade",
    "description": "Delicious General cuisine",
    "cuisine": "General",
    "latitude": 12.9961478,
    "longitude": 80.2681092,
    "address": "Chennai",
    "rating": 4.4,
    "delivery_time": 24,
    "delivery_fee": 1.9,
    "is_open": true,
    "phone": "",
    "website": "",
    "image": "https://images.unsplash.com/photo-1596188154?w=800&q=80"
  },
  {
    "name": "Hotel Meenakshi Bhavan",
    "description": "Delicious General cuisine",
    "cuisine": "General",
    "latitude": 13.0296649,
    "longitude": 80.276637,
    "address": "Chennai",
    "rating": 4.3,
    "delivery_time": 33,
    "delivery_fee": 2.8,
    "is_open": true,
    "phone": "",
    "website": "",
    "image": "https://images.unsplash.com/photo-1590148463?w=800&q=80"
  },
  {
    "name": "Curries and Chutneys",
    "description": "Delicious General cuisine",
    "cuisine": "General",
    "latitude": 13.0651778,
    "longitude": 80.2589417,
    "address": "Chennai",
    "rating": 4.8,
    "delivery_time": 28,
    "delivery_fee": 2.3,
    "is_open": true,
    "phone": "",
    "website": "",
    "image": "https://images.unsplash.com/photo-1589373728?w=800&q=80"
  },
  {
    "name": "Ratna Cafe",
    "description": "Delicious General cuisine",
    "cuisine": "General",
    "latitude": 12.9805893,
    "longitude": 80.2179786,
    "address": "Chennai",
    "rating": 4.7,
    "delivery_time": 27,
    "delivery_fee": 2.2,
    "is_open": true,
    "phone": "",
    "website": "",
    "image": "https://images.unsplash.com/photo-1563379537?w=800&q=80"
  },
  {
    "name": "Flamingo",
    "description": "Delicious General cuisine",
    "cuisine": "General",
    "latitude": 12.9841726,
    "longitude": 80.2182307,
    "address": "Chennai",
    "rating": 4.8,
    "delivery_time": 28,
    "delivery_fee": 2.3,
    "is_open": true,
    "phone": "",
    "website": "",
    "image": "https://images.unsplash.com/photo-1584117618?w=800&q=80"
  },
  {
    "name": "Mast Kalandar",
    "description": "Delicious General cuisine",
    "cuisine": "General",
    "latitude": 12.9847606,
    "longitude": 80.2177291,
    "address": "Chennai",
    "rating": 4.4,
    "delivery_time": 34,
    "delivery_fee": 2.9,
    "is_open": true,
    "phone": "",
    "website": "",
    "image": "https://images.unsplash.com/photo-1573638324?w=800&q=80"
  },
  {
    "name": "Amethyst",
    "description": "Delicious General cuisine",
    "cuisine": "General",
    "latitude": 13.057334,
    "longitude": 80.259754,
    "address": "Amethyst, Chennai",
    "rating": 4.8,
    "delivery_time": 48,
    "delivery_fee": 4.3,
    "is_open": true,
    "phone": "",
    "website": "",
    "image": "https://images.unsplash.com/photo-1521238218?w=800&q=80"
  },
  {
    "name": "Anbu Foods",
    "description": "Delicious Indian cuisine",
    "cuisine": "Indian",
    "latitude": 12.9775803,
    "longitude": 80.2618165,
    "address": "Chennai",
    "rating": 4.4,
    "delivery_time": 24,
    "delivery_fee": 1.9,
    "is_open": true,
    "phone": "",
    "website": "",
    "image": "https://images.unsplash.com/photo-1508166294?w=800&q=80"
  },
  {
    "name": "Texas Fiesta",
    "description": "Delicious Mexican cuisine",
    "cuisine": "Mexican",
    "latitude": 13.06004,
    "longitude": 80.253221,
    "address": "#17/2, Shaffee Mohammed Road, Off Greams & Khader Nawaz Khan Road, Chennai, Tamil Nadu",
    "rating": 4.8,
    "delivery_time": 48,
    "delivery_fee": 4.3,
    "is_open": true,
    "phone": "+91 44 43087882",
    "website": "www.texasfiesta.in",
    "image": "https://images.unsplash.com/photo-1565376858?w=800&q=80"
  },
  {
    "name": "Ganga Sweets",
    "description": "Delicious Indian cuisine",
    "cuisine": "Indian",
    "latitude": 12.975984,
    "longitude": 80.2216517,
    "address": "16 Sarathy Nagar 1st street, Chennai",
    "rating": 4.9,
    "delivery_time": 39,
    "delivery_fee": 3.4,
    "is_open": true,
    "phone": "+91 95008 73333",
    "website": "",
    "image": "https://images.unsplash.com/photo-1574758889?w=800&q=80"
  },
  {
    "name": "Maruthi Bhavan",
    "description": "Delicious Indian cuisine",
    "cuisine": "Indian",
    "latitude": 12.9761386,
    "longitude": 80.221856,
    "address": "Chennai",
    "rating": 4.7,
    "delivery_time": 37,
    "delivery_fee": 3.2,
    "is_open": true,
    "phone": "",
    "website": "",
    "image": "https://images.unsplash.com/photo-1592286187?w=800&q=80"
  },
  {
    "name": "Freeze Zone",
    "description": "Delicious Ice Cream cuisine",
    "cuisine": "Ice Cream",
    "latitude": 13.0428655,
    "longitude": 80.259599,
    "address": "Chennai",
    "rating": 4.6,
    "delivery_time": 46,
    "delivery_fee": 4.1,
    "is_open": true,
    "phone": "",
    "website": "",
    "image": "https://images.unsplash.com/photo-1511841756?w=800&q=80"
  },
  {
    "name": "Gangotree",
    "description": "Delicious Indian cuisine",
    "cuisine": "Indian",
    "latitude": 13.0471789,
    "longitude": 80.2546452,
    "address": "Chennai",
    "rating": 4.7,
    "delivery_time": 47,
    "delivery_fee": 4.2,
    "is_open": true,
    "phone": "",
    "website": "",
    "image": "https://images.unsplash.com/photo-1537464377?w=800&q=80"
  },
  {
    "name": "Toscana",
    "description": "Delicious Italian cuisine",
    "cuisine": "Italian",
    "latitude": 13.0290737,
    "longitude": 80.2483233,
    "address": "Chennai",
    "rating": 4.0,
    "delivery_time": 20,
    "delivery_fee": 1.5,
    "is_open": true,
    "phone": "",
    "website": "",
    "image": "https://images.unsplash.com/photo-1545966200?w=800&q=80"
  },
  {
    "name": "Parfait3",
    "description": "Delicious Coffee Shop cuisine",
    "cuisine": "Coffee Shop",
    "latitude": 12.979042,
    "longitude": 80.2267092,
    "address": "Chennai",
    "rating": 4.3,
    "delivery_time": 33,
    "delivery_fee": 2.8,
    "is_open": true,
    "phone": "",
    "website": "",
    "image": "https://images.unsplash.com/photo-1544216873?w=800&q=80"
  },
  {
    "name": "Mash",
    "description": "Delicious General cuisine",
    "cuisine": "General",
    "latitude": 13.061691,
    "longitude": 80.248271,
    "address": "3 Haddows 2nd Street, Nungambakkam, Chennai, Tamil Nadu",
    "rating": 4.1,
    "delivery_time": 41,
    "delivery_fee": 3.6,
    "is_open": true,
    "phone": "+9 44 28211555",
    "website": "www.mashrestocafe.com",
    "image": "https://images.unsplash.com/photo-1574684511?w=800&q=80"
  },
  {
    "name": "Banana Leaf",
    "description": "Delicious Regional cuisine",
    "cuisine": "Regional",
    "latitude": 13.0408188,
    "longitude": 80.2380816,
    "address": "Chennai",
    "rating": 4.8,
    "delivery_time": 48,
    "delivery_fee": 4.3,
    "is_open": true,
    "phone": "",
    "website": "",
    "image": "https://images.unsplash.com/photo-1574605208?w=800&q=80"
  },
  {
    "name": "Sri Balajee Bhavan",
    "description": "Delicious General cuisine",
    "cuisine": "General",
    "latitude": 13.0408797,
    "longitude": 80.2378821,
    "address": "Chennai",
    "rating": 4.3,
    "delivery_time": 43,
    "delivery_fee": 3.8,
    "is_open": true,
    "phone": "",
    "website": "",
    "image": "https://images.unsplash.com/photo-1546229663?w=800&q=80"
  },
  {
    "name": "Nalas Aappakadai",
    "description": "Delicious General cuisine",
    "cuisine": "General",
    "latitude": 13.0414192,
    "longitude": 80.2381571,
    "address": "Chennai",
    "rating": 4.4,
    "delivery_time": 34,
    "delivery_fee": 2.9,
    "is_open": true,
    "phone": "",
    "website": "",
    "image": "https://images.unsplash.com/photo-1589188494?w=800&q=80"
  },
  {
    "name": "Dindigul Velu Biryani",
    "description": "Delicious Regional cuisine",
    "cuisine": "Regional",
    "latitude": 12.969707,
    "longitude": 80.2178866,
    "address": "Chennai",
    "rating": 4.3,
    "delivery_time": 43,
    "delivery_fee": 3.8,
    "is_open": true,
    "phone": "",
    "website": "",
    "image": "https://images.unsplash.com/photo-1521367313?w=800&q=80"
  },
  {
    "name": "Sri Anjeppar restaurant",
    "description": "Delicious General cuisine",
    "cuisine": "General",
    "latitude": 12.9933742,
    "longitude": 80.2001919,
    "address": "Chennai",
    "rating": 4.8,
    "delivery_time": 48,
    "delivery_fee": 4.3,
    "is_open": true,
    "phone": "",
    "website": "",
    "image": "https://images.unsplash.com/photo-1594429848?w=800&q=80"
  },
  {
    "name": "Loiee",
    "description": "Delicious General cuisine",
    "cuisine": "General",
    "latitude": 12.9935964,
    "longitude": 80.1997306,
    "address": "Chennai",
    "rating": 4.2,
    "delivery_time": 22,
    "delivery_fee": 1.7,
    "is_open": true,
    "phone": "",
    "website": "",
    "image": "https://images.unsplash.com/photo-1518724442?w=800&q=80"
  },
  {
    "name": "CUC Restaurant",
    "description": "Delicious General cuisine",
    "cuisine": "General",
    "latitude": 12.9274004,
    "longitude": 80.2317217,
    "address": "Chennai",
    "rating": 4.1,
    "delivery_time": 31,
    "delivery_fee": 2.6,
    "is_open": true,
    "phone": "",
    "website": "",
    "image": "https://images.unsplash.com/photo-1532802781?w=800&q=80"
  },
  {
    "name": "Heaven n Home",
    "description": "Delicious General cuisine",
    "cuisine": "General",
    "latitude": 12.9196464,
    "longitude": 80.2306441,
    "address": "Chennai",
    "rating": 4.5,
    "delivery_time": 25,
    "delivery_fee": 2.0,
    "is_open": true,
    "phone": "",
    "website": "",
    "image": "https://images.unsplash.com/photo-1553619015?w=800&q=80"
  },
  {
    "name": "PEPPER",
    "description": "Delicious General cuisine",
    "cuisine": "General",
    "latitude": 12.9191392,
    "longitude": 80.2306816,
    "address": "Chennai",
    "rating": 4.8,
    "delivery_time": 28,
    "delivery_fee": 2.3,
    "is_open": true,
    "phone": "",
    "website": "",
    "image": "https://images.unsplash.com/photo-1502241508?w=800&q=80"
  },
  {
    "name": "Hot Chappathies",
    "description": "Delicious Fast Food cuisine",
    "cuisine": "Fast Food",
    "latitude": 12.9809077,
    "longitude": 80.1867898,
    "address": "Chennai",
    "rating": 4.5,
    "delivery_time": 35,
    "delivery_fee": 3.0,
    "is_open": true,
    "phone": "",
    "website": "",
    "image": "https://images.unsplash.com/photo-1555902685?w=800&q=80"
  },
  {
    "name": "Sri Sai Surya Hotel",
    "description": "Delicious General cuisine",
    "cuisine": "General",
    "latitude": 12.9863102,
    "longitude": 80.1883615,
    "address": "Chennai",
    "rating": 4.7,
    "delivery_time": 47,
    "delivery_fee": 4.2,
    "is_open": true,
    "phone": "",
    "website": "",
    "image": "https://images.unsplash.com/photo-1578036067?w=800&q=80"
  },
  {
    "name": "Food Fiesta",
    "description": "Delicious General cuisine",
    "cuisine": "General",
    "latitude": 12.9803074,
    "longitude": 80.2287613,
    "address": "Chennai",
    "rating": 4.3,
    "delivery_time": 23,
    "delivery_fee": 1.8,
    "is_open": true,
    "phone": "",
    "website": "",
    "image": "https://images.unsplash.com/photo-1549957113?w=800&q=80"
  },
  {
    "name": "Nandini Bakery and Restaurant",
    "description": "Delicious General cuisine",
    "cuisine": "General",
    "latitude": 12.988058,
    "longitude": 80.2230137,
    "address": "Chennai",
    "rating": 4.7,
    "delivery_time": 27,
    "delivery_fee": 2.2,
    "is_open": true,
    "phone": "",
    "website": "",
    "image": "https://images.unsplash.com/photo-1557045057?w=800&q=80"
  },
  {
    "name": "IITM-RP Food Court",
    "description": "Delicious Food Court cuisine",
    "cuisine": "Food Court",
    "latitude": 12.990388,
    "longitude": 80.2427276,
    "address": "Chennai",
    "rating": 4.8,
    "delivery_time": 38,
    "delivery_fee": 3.3,
    "is_open": true,
    "phone": "",
    "website": "",
    "image": "https://images.unsplash.com/photo-1547470838?w=800&q=80"
  },
  {
    "name": "The Farm",
    "description": "Delicious General cuisine",
    "cuisine": "General",
    "latitude": 12.8670026,
    "longitude": 80.2276391,
    "address": "Chennai",
    "rating": 4.9,
    "delivery_time": 29,
    "delivery_fee": 2.4,
    "is_open": true,
    "phone": "",
    "website": "",
    "image": "https://images.unsplash.com/photo-1515446939?w=800&q=80"
  },
  {
    "name": "Murudi's Hotel",
    "description": "Delicious General cuisine",
    "cuisine": "General",
    "latitude": 13.0755331,
    "longitude": 80.2693697,
    "address": "Chennai",
    "rating": 4.5,
    "delivery_time": 25,
    "delivery_fee": 2.0,
    "is_open": true,
    "phone": "",
    "website": "",
    "image": "https://images.unsplash.com/photo-1555058975?w=800&q=80"
  },
  {
    "name": "Hot Pot China",
    "description": "Open: Mo-Sa 08:00-10:30",
    "cuisine": "Chinese",
    "latitude": 12.9636596,
    "longitude": 80.2463937,
    "address": "Chennai",
    "rating": 4.2,
    "delivery_time": 22,
    "delivery_fee": 1.7,
    "is_open": true,
    "phone": "",
    "website": "",
    "image": "https://images.unsplash.com/photo-1596317232?w=800&q=80"
  },
  {
    "name": "Papa John's",
    "description": "Delicious Pizza cuisine",
    "cuisine": "Pizza",
    "latitude": 13.0906956,
    "longitude": 80.2184222,
    "address": "Chennai",
    "rating": 4.3,
    "delivery_time": 33,
    "delivery_fee": 2.8,
    "is_open": true,
    "phone": "",
    "website": "",
    "image": "https://images.unsplash.com/photo-1520023633?w=800&q=80"
  },
  {
    "name": "Cream & Fudge",
    "description": "Delicious Ice Cream cuisine",
    "cuisine": "Ice Cream",
    "latitude": 13.0907453,
    "longitude": 80.2184356,
    "address": "Chennai",
    "rating": 4.4,
    "delivery_time": 44,
    "delivery_fee": 3.9,
    "is_open": true,
    "phone": "",
    "website": "",
    "image": "https://images.unsplash.com/photo-1559916884?w=800&q=80"
  },
  {
    "name": "Nalas Appakadai",
    "description": "Delicious South Indian cuisine",
    "cuisine": "South Indian",
    "latitude": 13.0883486,
    "longitude": 80.2178412,
    "address": "Chennai",
    "rating": 4.4,
    "delivery_time": 24,
    "delivery_fee": 1.9,
    "is_open": true,
    "phone": "",
    "website": "",
    "image": "https://images.unsplash.com/photo-1572651264?w=800&q=80"
  },
  {
    "name": "Al Najeeb",
    "description": "Delicious Arab cuisine",
    "cuisine": "Arab",
    "latitude": 13.0900655,
    "longitude": 80.2444917,
    "address": "Chennai",
    "rating": 4.7,
    "delivery_time": 27,
    "delivery_fee": 2.2,
    "is_open": true,
    "phone": "",
    "website": "",
    "image": "https://images.unsplash.com/photo-1555142347?w=800&q=80"
  },
  {
    "name": "KimLing",
    "description": "Delicious Chinese cuisine",
    "cuisine": "Chinese",
    "latitude": 13.0846594,
    "longitude": 80.2126022,
    "address": "Chennai",
    "rating": 4.4,
    "delivery_time": 34,
    "delivery_fee": 2.9,
    "is_open": true,
    "phone": "",
    "website": "",
    "image": "https://images.unsplash.com/photo-1553002204?w=800&q=80"
  },
  {
    "name": "Savoury Sea Shell",
    "description": "Delicious Arab cuisine",
    "cuisine": "Arab",
    "latitude": 13.0875854,
    "longitude": 80.2182684,
    "address": "Chennai",
    "rating": 4.5,
    "delivery_time": 25,
    "delivery_fee": 2.0,
    "is_open": true,
    "phone": "",
    "website": "",
    "image": "https://images.unsplash.com/photo-1566428265?w=800&q=80"
  },
  {
    "name": "Quality Fast Food",
    "description": "Delicious Chinese cuisine",
    "cuisine": "Chinese",
    "latitude": 13.0903593,
    "longitude": 80.2186171,
    "address": "Chennai",
    "rating": 4.3,
    "delivery_time": 33,
    "delivery_fee": 2.8,
    "is_open": true,
    "phone": "",
    "website": "",
    "image": "https://images.unsplash.com/photo-1506105213?w=800&q=80"
  },
  {
    "name": "Amma Canteen",
    "description": "Delicious General cuisine",
    "cuisine": "General",
    "latitude": 13.0158805,
    "longitude": 80.1750645,
    "address": "Chennai",
    "rating": 4.0,
    "delivery_time": 40,
    "delivery_fee": 3.5,
    "is_open": true,
    "phone": "",
    "website": "",
    "image": "https://images.unsplash.com/photo-1555641330?w=800&q=80"
  },
  {
    "name": "Bismi Biryani",
    "description": "Delicious Fast Food cuisine",
    "cuisine": "Fast Food",
    "latitude": 12.9873277,
    "longitude": 80.2582378,
    "address": "Chennai",
    "rating": 4.4,
    "delivery_time": 24,
    "delivery_fee": 1.9,
    "is_open": true,
    "phone": "",
    "website": "",
    "image": "https://images.unsplash.com/photo-1529815454?w=800&q=80"
  },
  {
    "name": "Kailash Parbat",
    "description": "Delicious General cuisine",
    "cuisine": "General",
    "latitude": 12.989057,
    "longitude": 80.2183478,
    "address": "Chennai",
    "rating": 4.2,
    "delivery_time": 22,
    "delivery_fee": 1.7,
    "is_open": true,
    "phone": "",
    "website": "",
    "image": "https://images.unsplash.com/photo-1530518352?w=800&q=80"
  },
  {
    "name": "Veg Haven",
    "description": "Delicious General cuisine",
    "cuisine": "General",
    "latitude": 12.9905467,
    "longitude": 80.2187073,
    "address": "Chennai",
    "rating": 4.7,
    "delivery_time": 37,
    "delivery_fee": 3.2,
    "is_open": true,
    "phone": "",
    "website": "",
    "image": "https://images.unsplash.com/photo-1586646017?w=800&q=80"
  },
  {
    "name": "iWay Restaurant",
    "description": "Delicious Indian cuisine",
    "cuisine": "Indian",
    "latitude": 12.9596032,
    "longitude": 80.2445544,
    "address": "Rajiv Gandhi IT Expressway, Chennai",
    "rating": 4.2,
    "delivery_time": 22,
    "delivery_fee": 1.7,
    "is_open": true,
    "phone": "",
    "website": "",
    "image": "https://images.unsplash.com/photo-1509106982?w=800&q=80"
  },
  {
    "name": "Aishwarya Restaurant",
    "description": "Delicious General cuisine",
    "cuisine": "General",
    "latitude": 12.9941032,
    "longitude": 80.1871212,
    "address": "Chennai",
    "rating": 4.9,
    "delivery_time": 39,
    "delivery_fee": 3.4,
    "is_open": true,
    "phone": "",
    "website": "",
    "image": "https://images.unsplash.com/photo-1537360119?w=800&q=80"
  },
  {
    "name": "Noodle King",
    "description": "Delicious Chinese cuisine",
    "cuisine": "Chinese",
    "latitude": 12.9940614,
    "longitude": 80.186987,
    "address": "Chennai",
    "rating": 4.4,
    "delivery_time": 24,
    "delivery_fee": 1.9,
    "is_open": true,
    "phone": "",
    "website": "",
    "image": "https://images.unsplash.com/photo-1560923214?w=800&q=80"
  },
  {
    "name": "Jeyasri Pure Veg",
    "description": "Delicious General cuisine",
    "cuisine": "General",
    "latitude": 13.0659239,
    "longitude": 80.2681364,
    "address": "Mount Road, Chennai",
    "rating": 4.4,
    "delivery_time": 44,
    "delivery_fee": 3.9,
    "is_open": true,
    "phone": "044 28522186",
    "website": "",
    "image": "https://images.unsplash.com/photo-1520623454?w=800&q=80"
  },
  {
    "name": "thilak cafe",
    "description": "Delicious Cafe cuisine",
    "cuisine": "Cafe",
    "latitude": 12.9826996,
    "longitude": 80.2194639,
    "address": "Velachery Bypass Road, Chennai",
    "rating": 4.5,
    "delivery_time": 25,
    "delivery_fee": 2.0,
    "is_open": true,
    "phone": "",
    "website": "",
    "image": "https://images.unsplash.com/photo-1591094475?w=800&q=80"
  },
  {
    "name": "Vel Tiffin Centre",
    "description": "Delicious Regional cuisine",
    "cuisine": "Regional",
    "latitude": 13.0243276,
    "longitude": 80.2212113,
    "address": "Koothadum Pilliyar Koil Street, Saidapet",
    "rating": 4.7,
    "delivery_time": 47,
    "delivery_fee": 4.2,
    "is_open": true,
    "phone": "",
    "website": "",
    "image": "https://images.unsplash.com/photo-1509409087?w=800&q=80"
  },
  {
    "name": "Fathima Cafe",
    "description": "Open: 12:00-15:00,19:00-20:30",
    "cuisine": "General",
    "latitude": 13.0246165,
    "longitude": 80.2211984,
    "address": "Koothadum Pilliyar Koil Street, Chennai",
    "rating": 4.1,
    "delivery_time": 21,
    "delivery_fee": 1.6,
    "is_open": true,
    "phone": "",
    "website": "",
    "image": "https://images.unsplash.com/photo-1548419681?w=800&q=80"
  },
  {
    "name": "Kumbakonam Degree Coffee",
    "description": "Delicious Cafe cuisine",
    "cuisine": "Cafe",
    "latitude": 13.0222529,
    "longitude": 80.2222034,
    "address": "Vadhyar Subbraya mudali street, Chennai",
    "rating": 4.2,
    "delivery_time": 22,
    "delivery_fee": 1.7,
    "is_open": true,
    "phone": "",
    "website": "",
    "image": "https://images.unsplash.com/photo-1503846062?w=800&q=80"
  },
  {
    "name": "O.S.B. Hot & Chaat",
    "description": "Delicious Fast Food cuisine",
    "cuisine": "Fast Food",
    "latitude": 13.0354307,
    "longitude": 80.221147,
    "address": "Lake View Road, West Mambalam",
    "rating": 4.7,
    "delivery_time": 47,
    "delivery_fee": 4.2,
    "is_open": true,
    "phone": "",
    "website": "",
    "image": "https://images.unsplash.com/photo-1519829047?w=800&q=80"
  },
  {
    "name": "Sangeetha Vegetarian Restaurant",
    "description": "Delicious Indian cuisine",
    "cuisine": "Indian",
    "latitude": 13.0889275,
    "longitude": 80.2875692,
    "address": "Chennai",
    "rating": 4.3,
    "delivery_time": 33,
    "delivery_fee": 2.8,
    "is_open": true,
    "phone": "",
    "website": "",
    "image": "https://images.unsplash.com/photo-1528529513?w=800&q=80"
  },
  {
    "name": "Indian Cofee House",
    "description": "Delicious Indian cuisine",
    "cuisine": "Indian",
    "latitude": 13.0348438,
    "longitude": 80.2305246,
    "address": "Chennai",
    "rating": 4.8,
    "delivery_time": 38,
    "delivery_fee": 3.3,
    "is_open": true,
    "phone": "",
    "website": "",
    "image": "https://images.unsplash.com/photo-1500858948?w=800&q=80"
  },
  {
    "name": "Ganambal Idly Shop",
    "description": "Delicious General cuisine",
    "cuisine": "General",
    "latitude": 12.9297291,
    "longitude": 80.2316514,
    "address": "Rajiv Gandhi Salai, Chennai",
    "rating": 4.0,
    "delivery_time": 40,
    "delivery_fee": 3.5,
    "is_open": true,
    "phone": "",
    "website": "",
    "image": "https://images.unsplash.com/photo-1555099100?w=800&q=80"
  },
  {
    "name": "Coffee Day",
    "description": "Delicious Cafe cuisine",
    "cuisine": "Cafe",
    "latitude": 12.927839,
    "longitude": 80.2317171,
    "address": "Chennai",
    "rating": 4.5,
    "delivery_time": 35,
    "delivery_fee": 3.0,
    "is_open": true,
    "phone": "",
    "website": "",
    "image": "https://images.unsplash.com/photo-1546477615?w=800&q=80"
  },
  {
    "name": "Metro Sagar",
    "description": "Delicious Regional cuisine",
    "cuisine": "Regional",
    "latitude": 13.0213047,
    "longitude": 80.225602,
    "address": "Anna Salai (Mount Road), Saidapet",
    "rating": 4.6,
    "delivery_time": 26,
    "delivery_fee": 2.1,
    "is_open": true,
    "phone": "",
    "website": "",
    "image": "https://images.unsplash.com/photo-1531224316?w=800&q=80"
  },
  {
    "name": "Mansuk's",
    "description": "Open: Mo-Su 11:00-22:00",
    "cuisine": "Indian",
    "latitude": 13.0355652,
    "longitude": 80.21636,
    "address": "57A 7th Avenue, Chennai",
    "rating": 4.0,
    "delivery_time": 40,
    "delivery_fee": 3.5,
    "is_open": true,
    "phone": "097899 06461",
    "website": "http://mansuksweets.com",
    "image": "https://images.unsplash.com/photo-1577783560?w=800&q=80"
  },
  {
    "name": "Mannah Sweets",
    "description": "Delicious Fast Food cuisine",
    "cuisine": "Fast Food",
    "latitude": 13.0523188,
    "longitude": 80.2281511,
    "address": "Chennai",
    "rating": 4.7,
    "delivery_time": 37,
    "delivery_fee": 3.2,
    "is_open": true,
    "phone": "",
    "website": "",
    "image": "https://images.unsplash.com/photo-1545925707?w=800&q=80"
  },
  {
    "name": "Kaidhi Kitchen",
    "description": "Delicious International cuisine",
    "cuisine": "International",
    "latitude": 13.0445136,
    "longitude": 80.2614492,
    "address": "20/3 Bishop Wallers East Avenue, Chennai",
    "rating": 4.2,
    "delivery_time": 22,
    "delivery_fee": 1.7,
    "is_open": true,
    "phone": "",
    "website": "",
    "image": "https://images.unsplash.com/photo-1594416332?w=800&q=80"
  },
  {
    "name": "Royal Sandwich",
    "description": "Open: Mo-Su 09:30-21:30",
    "cuisine": "Sandwich",
    "latitude": 13.0338021,
    "longitude": 80.2533553,
    "address": "159/160 T T Krishnamachari Road, Chennai",
    "rating": 4.7,
    "delivery_time": 27,
    "delivery_fee": 2.2,
    "is_open": true,
    "phone": "",
    "website": "",
    "image": "https://images.unsplash.com/photo-1507158797?w=800&q=80"
  },
  {
    "name": "Spoonbill",
    "description": "Open: 11:00-23:00",
    "cuisine": "International",
    "latitude": 13.0335251,
    "longitude": 80.2534304,
    "address": "239/107 TTK Road, Chennai",
    "rating": 4.3,
    "delivery_time": 23,
    "delivery_fee": 1.8,
    "is_open": true,
    "phone": "",
    "website": "",
    "image": "https://images.unsplash.com/photo-1557904353?w=800&q=80"
  },
  {
    "name": "Snow Cube",
    "description": "Delicious Pizza cuisine",
    "cuisine": "Pizza",
    "latitude": 12.9645311,
    "longitude": 80.1878329,
    "address": "Chennai",
    "rating": 4.6,
    "delivery_time": 26,
    "delivery_fee": 2.1,
    "is_open": true,
    "phone": "",
    "website": "",
    "image": "https://images.unsplash.com/photo-1506736776?w=800&q=80"
  },
  {
    "name": "Gokulam",
    "description": "Delicious General cuisine",
    "cuisine": "General",
    "latitude": 13.0180379,
    "longitude": 80.2412019,
    "address": "Chennai",
    "rating": 4.8,
    "delivery_time": 38,
    "delivery_fee": 3.3,
    "is_open": true,
    "phone": "",
    "website": "",
    "image": "https://images.unsplash.com/photo-1561744588?w=800&q=80"
  },
  {
    "name": "Home Meals",
    "description": "Delicious General cuisine",
    "cuisine": "General",
    "latitude": 13.0180196,
    "longitude": 80.2411617,
    "address": "Chennai",
    "rating": 4.3,
    "delivery_time": 33,
    "delivery_fee": 2.8,
    "is_open": true,
    "phone": "",
    "website": "",
    "image": "https://images.unsplash.com/photo-1593167813?w=800&q=80"
  },
  {
    "name": "Madrasi Dhaba",
    "description": "Delicious General cuisine",
    "cuisine": "General",
    "latitude": 13.0178837,
    "longitude": 80.2415412,
    "address": "Chennai",
    "rating": 4.1,
    "delivery_time": 41,
    "delivery_fee": 3.6,
    "is_open": true,
    "phone": "",
    "website": "",
    "image": "https://images.unsplash.com/photo-1540751391?w=800&q=80"
  },
  {
    "name": "E3 Pizza Shop",
    "description": "Delicious General cuisine",
    "cuisine": "General",
    "latitude": 13.0065651,
    "longitude": 80.2507067,
    "address": "Chennai",
    "rating": 4.3,
    "delivery_time": 43,
    "delivery_fee": 3.8,
    "is_open": true,
    "phone": "",
    "website": "",
    "image": "https://images.unsplash.com/photo-1525281783?w=800&q=80"
  },
  {
    "name": "The Stop",
    "description": "Delicious General cuisine",
    "cuisine": "General",
    "latitude": 13.0069508,
    "longitude": 80.2576812,
    "address": "Chennai",
    "rating": 4.5,
    "delivery_time": 25,
    "delivery_fee": 2.0,
    "is_open": true,
    "phone": "",
    "website": "",
    "image": "https://images.unsplash.com/photo-1569361125?w=800&q=80"
  },
  {
    "name": "Rain Forest",
    "description": "Delicious General cuisine",
    "cuisine": "General",
    "latitude": 13.0069018,
    "longitude": 80.2575979,
    "address": "Chennai",
    "rating": 4.0,
    "delivery_time": 30,
    "delivery_fee": 2.5,
    "is_open": true,
    "phone": "",
    "website": "",
    "image": "https://images.unsplash.com/photo-1591928560?w=800&q=80"
  },
  {
    "name": "Anjappar",
    "description": "Delicious General cuisine",
    "cuisine": "General",
    "latitude": 13.0065703,
    "longitude": 80.2508354,
    "address": "Chennai",
    "rating": 4.6,
    "delivery_time": 26,
    "delivery_fee": 2.1,
    "is_open": true,
    "phone": "",
    "website": "",
    "image": "https://images.unsplash.com/photo-1571827036?w=800&q=80"
  },
  {
    "name": "Animal Kingdom",
    "description": "Delicious General cuisine",
    "cuisine": "General",
    "latitude": 13.0070694,
    "longitude": 80.2577985,
    "address": "Chennai",
    "rating": 4.5,
    "delivery_time": 45,
    "delivery_fee": 4.0,
    "is_open": true,
    "phone": "",
    "website": "",
    "image": "https://images.unsplash.com/photo-1505284385?w=800&q=80"
  },
  {
    "name": "Sea emperor",
    "description": "Delicious General cuisine",
    "cuisine": "General",
    "latitude": 12.9640395,
    "longitude": 80.212701,
    "address": "Chennai",
    "rating": 4.7,
    "delivery_time": 47,
    "delivery_fee": 4.2,
    "is_open": true,
    "phone": "",
    "website": "",
    "image": "https://images.unsplash.com/photo-1543233237?w=800&q=80"
  },
  {
    "name": "Rainmaker",
    "description": "Delicious General cuisine",
    "cuisine": "General",
    "latitude": 13.0547433,
    "longitude": 80.2239795,
    "address": "Chennai",
    "rating": 4.1,
    "delivery_time": 21,
    "delivery_fee": 1.6,
    "is_open": true,
    "phone": "",
    "website": "",
    "image": "https://images.unsplash.com/photo-1559547641?w=800&q=80"
  },
  {
    "name": "Grill Box BBQ",
    "description": "Delicious General cuisine",
    "cuisine": "General",
    "latitude": 13.0455027,
    "longitude": 80.2355696,
    "address": "Raghaviah Road, Chennai",
    "rating": 4.5,
    "delivery_time": 35,
    "delivery_fee": 3.0,
    "is_open": true,
    "phone": "",
    "website": "",
    "image": "https://images.unsplash.com/photo-1520374875?w=800&q=80"
  },
  {
    "name": "VSP Kitchen House",
    "description": "Delicious Fast Food cuisine",
    "cuisine": "Fast Food",
    "latitude": 13.0364977,
    "longitude": 80.2230573,
    "address": "Lake View Road, West Mambalam",
    "rating": 4.3,
    "delivery_time": 23,
    "delivery_fee": 1.8,
    "is_open": true,
    "phone": "",
    "website": "",
    "image": "https://images.unsplash.com/photo-1510087033?w=800&q=80"
  },
  {
    "name": "Moti Mahal",
    "description": "Delicious Indian cuisine",
    "cuisine": "Indian",
    "latitude": 12.8999989,
    "longitude": 80.2287926,
    "address": "Chennai",
    "rating": 4.2,
    "delivery_time": 32,
    "delivery_fee": 2.7,
    "is_open": true,
    "phone": "",
    "website": "",
    "image": "https://images.unsplash.com/photo-1512441152?w=800&q=80"
  },
  {
    "name": "ARAVIND Traveler's Coffee",
    "description": "Delicious Coffee Shop cuisine",
    "cuisine": "Coffee Shop",
    "latitude": 13.0963403,
    "longitude": 80.2640741,
    "address": "142 D'Mellows Rd, CHENNAI",
    "rating": 4.2,
    "delivery_time": 42,
    "delivery_fee": 3.7,
    "is_open": true,
    "phone": "",
    "website": "",
    "image": "https://images.unsplash.com/photo-1570092872?w=800&q=80"
  },
  {
    "name": "Coffee Tales",
    "description": "Delicious Cafe cuisine",
    "cuisine": "Cafe",
    "latitude": 13.08175,
    "longitude": 80.224869,
    "address": "Chennai",
    "rating": 4.5,
    "delivery_time": 25,
    "delivery_fee": 2.0,
    "is_open": true,
    "phone": "",
    "website": "",
    "image": "https://images.unsplash.com/photo-1537826045?w=800&q=80"
  },
  {
    "name": "Zaitoon",
    "description": "Delicious General cuisine",
    "cuisine": "General",
    "latitude": 13.0835126,
    "longitude": 80.225507,
    "address": "Chennai",
    "rating": 4.4,
    "delivery_time": 24,
    "delivery_fee": 1.9,
    "is_open": true,
    "phone": "",
    "website": "",
    "image": "https://images.unsplash.com/photo-1571312924?w=800&q=80"
  },
  {
    "name": "Sandwich Square",
    "description": "Delicious Fast Food cuisine",
    "cuisine": "Fast Food",
    "latitude": 13.0828046,
    "longitude": 80.2255686,
    "address": "Chennai",
    "rating": 4.1,
    "delivery_time": 41,
    "delivery_fee": 3.6,
    "is_open": true,
    "phone": "",
    "website": "",
    "image": "https://images.unsplash.com/photo-1571504721?w=800&q=80"
  },
  {
    "name": "Sri Gupta Bhavan",
    "description": "Delicious North Indian cuisine",
    "cuisine": "North Indian",
    "latitude": 12.9682414,
    "longitude": 80.1487046,
    "address": "Chennai",
    "rating": 4.0,
    "delivery_time": 30,
    "delivery_fee": 2.5,
    "is_open": true,
    "phone": "",
    "website": "",
    "image": "https://images.unsplash.com/photo-1555857620?w=800&q=80"
  },
  {
    "name": "Naidu Andhra Mess",
    "description": "Delicious General cuisine",
    "cuisine": "General",
    "latitude": 13.0353775,
    "longitude": 80.2343301,
    "address": "Chennai",
    "rating": 4.6,
    "delivery_time": 26,
    "delivery_fee": 2.1,
    "is_open": true,
    "phone": "",
    "website": "",
    "image": "https://images.unsplash.com/photo-1523910866?w=800&q=80"
  },
  {
    "name": "Anthikkadai",
    "description": "Delicious General cuisine",
    "cuisine": "General",
    "latitude": 12.9824641,
    "longitude": 80.2246365,
    "address": "20 Dandeeswaram Main Road, Chennai",
    "rating": 4.4,
    "delivery_time": 24,
    "delivery_fee": 1.9,
    "is_open": true,
    "phone": "+91 81223 11234;+91 44 6461 1234",
    "website": "",
    "image": "https://images.unsplash.com/photo-1583576484?w=800&q=80"
  },
  {
    "name": "Balan Tea",
    "description": "Delicious Tea cuisine",
    "cuisine": "Tea",
    "latitude": 12.9853716,
    "longitude": 80.2312088,
    "address": "Gandhi Road, Chennai",
    "rating": 4.7,
    "delivery_time": 47,
    "delivery_fee": 4.2,
    "is_open": true,
    "phone": "",
    "website": "",
    "image": "https://images.unsplash.com/photo-1590668287?w=800&q=80"
  },
  {
    "name": "Sree Saiva Bhavan",
    "description": "Open: Mo-Su 07:30-22:00",
    "cuisine": "General",
    "latitude": 13.0150919,
    "longitude": 80.1839551,
    "address": "Chennai",
    "rating": 4.7,
    "delivery_time": 37,
    "delivery_fee": 3.2,
    "is_open": true,
    "phone": "",
    "website": "",
    "image": "https://images.unsplash.com/photo-1577639557?w=800&q=80"
  },
  {
    "name": "D A Brothers food center Briyani",
    "description": "Delicious General cuisine",
    "cuisine": "General",
    "latitude": 13.0161035,
    "longitude": 80.1750099,
    "address": "Chennai",
    "rating": 4.3,
    "delivery_time": 23,
    "delivery_fee": 1.8,
    "is_open": true,
    "phone": "",
    "website": "",
    "image": "https://images.unsplash.com/photo-1513011383?w=800&q=80"
  },
  {
    "name": "Gaurav Vada Pav Centre",
    "description": "Delicious Indian cuisine",
    "cuisine": "Indian",
    "latitude": 12.9692702,
    "longitude": 80.2453673,
    "address": "Chennai",
    "rating": 4.5,
    "delivery_time": 25,
    "delivery_fee": 2.0,
    "is_open": true,
    "phone": "",
    "website": "",
    "image": "https://images.unsplash.com/photo-1572912195?w=800&q=80"
  },
  {
    "name": "The Rock Restaurant",
    "description": "Open: 12:00-15:00,19:00-23:00",
    "cuisine": "General",
    "latitude": 13.091467,
    "longitude": 80.2180657,
    "address": "Chennai",
    "rating": 4.7,
    "delivery_time": 47,
    "delivery_fee": 4.2,
    "is_open": true,
    "phone": "",
    "website": "",
    "image": "https://images.unsplash.com/photo-1538712507?w=800&q=80"
  },
  {
    "name": "Arun Caterors (Swamys Homely Food)",
    "description": "Open: 07:30-10:00,12:00-2:30,19:00-21:00",
    "cuisine": "Indian",
    "latitude": 12.9781784,
    "longitude": 80.2288982,
    "address": "Chennai",
    "rating": 4.4,
    "delivery_time": 34,
    "delivery_fee": 2.9,
    "is_open": true,
    "phone": "",
    "website": "",
    "image": "https://images.unsplash.com/photo-1545725044?w=800&q=80"
  },
  {
    "name": "Meena Tai's",
    "description": "Delicious Indian cuisine",
    "cuisine": "Indian",
    "latitude": 13.039509,
    "longitude": 80.2538071,
    "address": "Maharaja Surya Road, Chennai",
    "rating": 4.2,
    "delivery_time": 42,
    "delivery_fee": 3.7,
    "is_open": true,
    "phone": "",
    "website": "",
    "image": "https://images.unsplash.com/photo-1562268272?w=800&q=80"
  },
  {
    "name": "absolute barbeques ",
    "description": "Delicious General cuisine",
    "cuisine": "General",
    "latitude": 13.045426,
    "longitude": 80.2412295,
    "address": "Gopathi Narayanaswami Road, Chennai",
    "rating": 4.1,
    "delivery_time": 21,
    "delivery_fee": 1.6,
    "is_open": true,
    "phone": "",
    "website": "",
    "image": "https://images.unsplash.com/photo-1556320831?w=800&q=80"
  },
  {
    "name": "madras coffee house",
    "description": "Delicious Cafe cuisine",
    "cuisine": "Cafe",
    "latitude": 13.0469371,
    "longitude": 80.2368552,
    "address": "Rajan Street, Chennai",
    "rating": 4.6,
    "delivery_time": 36,
    "delivery_fee": 3.1,
    "is_open": true,
    "phone": "",
    "website": "",
    "image": "https://images.unsplash.com/photo-1533515976?w=800&q=80"
  },
  {
    "name": "Pind Restaurent",
    "description": "Delicious Indian cuisine",
    "cuisine": "Indian",
    "latitude": 12.9758138,
    "longitude": 80.2220064,
    "address": "2 Sarathy Nagar 1st Main Road, Chennai",
    "rating": 4.3,
    "delivery_time": 23,
    "delivery_fee": 1.8,
    "is_open": true,
    "phone": "+91 44 2243 0003;+91 44 4260 2556",
    "website": "",
    "image": "https://images.unsplash.com/photo-1527699783?w=800&q=80"
  },
  {
    "name": "Amma Mess (Subsidised Food)",
    "description": "Delicious Indian cuisine",
    "cuisine": "Indian",
    "latitude": 12.9850891,
    "longitude": 80.2405139,
    "address": "Chennai",
    "rating": 4.4,
    "delivery_time": 34,
    "delivery_fee": 2.9,
    "is_open": true,
    "phone": "",
    "website": "",
    "image": "https://images.unsplash.com/photo-1506063244?w=800&q=80"
  },
  {
    "name": "TEA SHOP",
    "description": "Delicious General cuisine",
    "cuisine": "General",
    "latitude": 13.0273791,
    "longitude": 80.2176024,
    "address": "Thiruvalluvar Street, Chennai",
    "rating": 4.7,
    "delivery_time": 47,
    "delivery_fee": 4.2,
    "is_open": true,
    "phone": "",
    "website": "",
    "image": "https://images.unsplash.com/photo-1575598297?w=800&q=80"
  },
  {
    "name": "Isabel Hospital Canteen",
    "description": "Delicious Indian cuisine",
    "cuisine": "Indian",
    "latitude": 13.0387128,
    "longitude": 80.2624199,
    "address": "Chennai",
    "rating": 4.9,
    "delivery_time": 29,
    "delivery_fee": 2.4,
    "is_open": true,
    "phone": "",
    "website": "",
    "image": "https://images.unsplash.com/photo-1578018739?w=800&q=80"
  },
  {
    "name": "Mahamudra",
    "description": "Delicious General cuisine",
    "cuisine": "General",
    "latitude": 13.0366167,
    "longitude": 80.2624809,
    "address": "Chennai",
    "rating": 4.8,
    "delivery_time": 28,
    "delivery_fee": 2.3,
    "is_open": true,
    "phone": "",
    "website": "",
    "image": "https://images.unsplash.com/photo-1567630748?w=800&q=80"
  },
  {
    "name": "Coal BarbeQ",
    "description": "Delicious Indian cuisine",
    "cuisine": "Indian",
    "latitude": 12.9859913,
    "longitude": 80.2182482,
    "address": "Chennai",
    "rating": 4.8,
    "delivery_time": 48,
    "delivery_fee": 4.3,
    "is_open": true,
    "phone": "",
    "website": "",
    "image": "https://images.unsplash.com/photo-1564492608?w=800&q=80"
  },
  {
    "name": "Crescent Hotel",
    "description": "Delicious Indian cuisine",
    "cuisine": "Indian",
    "latitude": 13.0643655,
    "longitude": 80.2433336,
    "address": "Valluvar Kottam High Road, Chennai",
    "rating": 4.7,
    "delivery_time": 47,
    "delivery_fee": 4.2,
    "is_open": true,
    "phone": "",
    "website": "",
    "image": "https://images.unsplash.com/photo-1531389647?w=800&q=80"
  },
  {
    "name": "Velu Military Hotel",
    "description": "Delicious General cuisine",
    "cuisine": "General",
    "latitude": 13.062755,
    "longitude": 80.2436537,
    "address": "Valluvar Kottam High Road, Chennai",
    "rating": 4.9,
    "delivery_time": 29,
    "delivery_fee": 2.4,
    "is_open": true,
    "phone": "",
    "website": "",
    "image": "https://images.unsplash.com/photo-1579079899?w=800&q=80"
  },
  {
    "name": "Murugan Idly Shop",
    "description": "Delicious General cuisine",
    "cuisine": "General",
    "latitude": 12.9956088,
    "longitude": 80.2702331,
    "address": "Chennai",
    "rating": 4.0,
    "delivery_time": 40,
    "delivery_fee": 3.5,
    "is_open": true,
    "phone": "",
    "website": "",
    "image": "https://images.unsplash.com/photo-1581411320?w=800&q=80"
  },
  {
    "name": "Murugan Idli Shop",
    "description": "Delicious Indian cuisine",
    "cuisine": "Indian",
    "latitude": 13.0891115,
    "longitude": 80.2878586,
    "address": "Armenian Street, Chennai",
    "rating": 4.5,
    "delivery_time": 35,
    "delivery_fee": 3.0,
    "is_open": true,
    "phone": "",
    "website": "",
    "image": "https://images.unsplash.com/photo-1575835645?w=800&q=80"
  },
  {
    "name": "Amma Unavagam",
    "description": "Delicious Local cuisine",
    "cuisine": "Local",
    "latitude": 12.9833026,
    "longitude": 80.2314302,
    "address": "Chennai",
    "rating": 4.6,
    "delivery_time": 36,
    "delivery_fee": 3.1,
    "is_open": true,
    "phone": "",
    "website": "",
    "image": "https://images.unsplash.com/photo-1513030786?w=800&q=80"
  },
  {
    "name": "Mummy Daddy Andhra Mess",
    "description": "Delicious Indian cuisine",
    "cuisine": "Indian",
    "latitude": 12.9832616,
    "longitude": 80.2315254,
    "address": "Chennai",
    "rating": 4.0,
    "delivery_time": 40,
    "delivery_fee": 3.5,
    "is_open": true,
    "phone": "",
    "website": "",
    "image": "https://images.unsplash.com/photo-1542749230?w=800&q=80"
  },
  {
    "name": "DA Brothers Restaurant",
    "description": "Open: Mo-Su 11:00-23:00",
    "cuisine": "Indian",
    "latitude": 13.0110341,
    "longitude": 80.1531139,
    "address": "2/239 Anna Main Road, Kolapakkam, Chennai",
    "rating": 4.9,
    "delivery_time": 29,
    "delivery_fee": 2.4,
    "is_open": true,
    "phone": "+918144306666",
    "website": "",
    "image": "https://images.unsplash.com/photo-1575657839?w=800&q=80"
  },
  {
    "name": "Juiceteria",
    "description": "Delicious Juice cuisine",
    "cuisine": "Juice",
    "latitude": 12.904328,
    "longitude": 80.228305,
    "address": "Chennai",
    "rating": 4.3,
    "delivery_time": 23,
    "delivery_fee": 1.8,
    "is_open": true,
    "phone": "",
    "website": "",
    "image": "https://images.unsplash.com/photo-1510465403?w=800&q=80"
  },
  {
    "name": "Metro Juice",
    "description": "Delicious Juice cuisine",
    "cuisine": "Juice",
    "latitude": 12.9067585,
    "longitude": 80.2298996,
    "address": "Chennai",
    "rating": 4.0,
    "delivery_time": 20,
    "delivery_fee": 1.5,
    "is_open": true,
    "phone": "",
    "website": "",
    "image": "https://images.unsplash.com/photo-1590072190?w=800&q=80"
  },
  {
    "name": "vasanth vihar",
    "description": "Delicious General cuisine",
    "cuisine": "General",
    "latitude": 12.974988,
    "longitude": 80.2203264,
    "address": "Chennai",
    "rating": 4.1,
    "delivery_time": 21,
    "delivery_fee": 1.6,
    "is_open": true,
    "phone": "",
    "website": "",
    "image": "https://images.unsplash.com/photo-1599837601?w=800&q=80"
  },
  {
    "name": "Buhari Hotel",
    "description": "Delicious General cuisine",
    "cuisine": "General",
    "latitude": 13.0141587,
    "longitude": 80.1934357,
    "address": "Mount Poonamallee Highway, Chennai",
    "rating": 4.8,
    "delivery_time": 48,
    "delivery_fee": 4.3,
    "is_open": true,
    "phone": "",
    "website": "",
    "image": "https://images.unsplash.com/photo-1558349798?w=800&q=80"
  },
  {
    "name": "New Arcot Biryani",
    "description": "Delicious Fast Food cuisine",
    "cuisine": "Fast Food",
    "latitude": 13.0211168,
    "longitude": 80.183088,
    "address": "Chennai",
    "rating": 4.5,
    "delivery_time": 25,
    "delivery_fee": 2.0,
    "is_open": true,
    "phone": "",
    "website": "",
    "image": "https://images.unsplash.com/photo-1595837925?w=800&q=80"
  },
  {
    "name": "PRIYA TEA STALL",
    "description": "Delicious Cafe cuisine",
    "cuisine": "Cafe",
    "latitude": 13.022756,
    "longitude": 80.1838415,
    "address": "Chennai",
    "rating": 4.5,
    "delivery_time": 35,
    "delivery_fee": 3.0,
    "is_open": true,
    "phone": "",
    "website": "",
    "image": "https://images.unsplash.com/photo-1534145025?w=800&q=80"
  },
  {
    "name": "asife briyani",
    "description": "Delicious Fast Food cuisine",
    "cuisine": "Fast Food",
    "latitude": 12.9783186,
    "longitude": 80.2189624,
    "address": "Chennai",
    "rating": 4.1,
    "delivery_time": 31,
    "delivery_fee": 2.6,
    "is_open": true,
    "phone": "",
    "website": "",
    "image": "https://images.unsplash.com/photo-1569855451?w=800&q=80"
  },
  {
    "name": "dindugal thalapakaati briyani",
    "description": "Delicious Fast Food cuisine",
    "cuisine": "Fast Food",
    "latitude": 13.0214797,
    "longitude": 80.1829866,
    "address": "Chennai",
    "rating": 4.6,
    "delivery_time": 46,
    "delivery_fee": 4.1,
    "is_open": true,
    "phone": "",
    "website": "",
    "image": "https://images.unsplash.com/photo-1514735376?w=800&q=80"
  },
  {
    "name": "Buhari",
    "description": "Delicious General cuisine",
    "cuisine": "General",
    "latitude": 13.014394,
    "longitude": 80.1931117,
    "address": "Chennai",
    "rating": 4.3,
    "delivery_time": 43,
    "delivery_fee": 3.8,
    "is_open": true,
    "phone": "",
    "website": "",
    "image": "https://images.unsplash.com/photo-1577391803?w=800&q=80"
  },
  {
    "name": "Barbeque Nation",
    "description": "Delicious General cuisine",
    "cuisine": "General",
    "latitude": 12.9437934,
    "longitude": 80.2380696,
    "address": "Chennai",
    "rating": 4.1,
    "delivery_time": 21,
    "delivery_fee": 1.6,
    "is_open": true,
    "phone": "",
    "website": "",
    "image": "https://images.unsplash.com/photo-1557665721?w=800&q=80"
  },
  {
    "name": "747",
    "description": "Delicious General cuisine",
    "cuisine": "General",
    "latitude": 12.9437777,
    "longitude": 80.2381152,
    "address": "Chennai",
    "rating": 4.6,
    "delivery_time": 26,
    "delivery_fee": 2.1,
    "is_open": true,
    "phone": "",
    "website": "",
    "image": "https://images.unsplash.com/photo-1564954806?w=800&q=80"
  },
  {
    "name": "Seenas Andhra Tiffin",
    "description": "Delicious General cuisine",
    "cuisine": "General",
    "latitude": 13.0624328,
    "longitude": 80.2424119,
    "address": "Seetha Nagar 2nd Street, Chennai",
    "rating": 4.9,
    "delivery_time": 29,
    "delivery_fee": 2.4,
    "is_open": true,
    "phone": "",
    "website": "",
    "image": "https://images.unsplash.com/photo-1574191169?w=800&q=80"
  },
  {
    "name": "Sigree",
    "description": "Delicious General cuisine",
    "cuisine": "General",
    "latitude": 13.0658718,
    "longitude": 80.2424649,
    "address": "Chennai",
    "rating": 4.8,
    "delivery_time": 28,
    "delivery_fee": 2.3,
    "is_open": true,
    "phone": "",
    "website": "",
    "image": "https://images.unsplash.com/photo-1556320088?w=800&q=80"
  },
  {
    "name": "Coffee Shop",
    "description": "Open: 09:30-20:00",
    "cuisine": "Cafe",
    "latitude": 12.9969533,
    "longitude": 80.2405831,
    "address": "Chennai",
    "rating": 4.2,
    "delivery_time": 22,
    "delivery_fee": 1.7,
    "is_open": true,
    "phone": "",
    "website": "",
    "image": "https://images.unsplash.com/photo-1504143952?w=800&q=80"
  },
  {
    "name": "Bombay Kulfi",
    "description": "Delicious Ice Cream cuisine",
    "cuisine": "Ice Cream",
    "latitude": 12.9989664,
    "longitude": 80.2594573,
    "address": "Chennai",
    "rating": 4.0,
    "delivery_time": 20,
    "delivery_fee": 1.5,
    "is_open": true,
    "phone": "",
    "website": "",
    "image": "https://images.unsplash.com/photo-1564786040?w=800&q=80"
  },
  {
    "name": "Absolem",
    "description": "Delicious Indian cuisine",
    "cuisine": "Indian",
    "latitude": 13.0463171,
    "longitude": 80.246437,
    "address": "Narashiman 2nd Street, Chennai",
    "rating": 4.8,
    "delivery_time": 48,
    "delivery_fee": 4.3,
    "is_open": true,
    "phone": "",
    "website": "",
    "image": "https://images.unsplash.com/photo-1517893538?w=800&q=80"
  },
  {
    "name": "Delhi Highway",
    "description": "Delicious Indian cuisine",
    "cuisine": "Indian",
    "latitude": 13.0719315,
    "longitude": 80.2530681,
    "address": "Casa Major Road, Chennai",
    "rating": 4.2,
    "delivery_time": 32,
    "delivery_fee": 2.7,
    "is_open": true,
    "phone": "",
    "website": "",
    "image": "https://images.unsplash.com/photo-1572638032?w=800&q=80"
  },
  {
    "name": "recreation centre",
    "description": "Open: 21:30-22:30",
    "cuisine": "Regional",
    "latitude": 13.013219,
    "longitude": 80.2373374,
    "address": "sardar patel road, chennai",
    "rating": 4.7,
    "delivery_time": 27,
    "delivery_fee": 2.2,
    "is_open": true,
    "phone": "",
    "website": "",
    "image": "https://images.unsplash.com/photo-1596189477?w=800&q=80"
  },
  {
    "name": "Hi-Look",
    "description": "Best tea ever",
    "cuisine": "Tea Shop",
    "latitude": 13.0065052,
    "longitude": 80.2444537,
    "address": "Chennai",
    "rating": 4.7,
    "delivery_time": 27,
    "delivery_fee": 2.2,
    "is_open": true,
    "phone": "",
    "website": "",
    "image": "https://images.unsplash.com/photo-1517952427?w=800&q=80"
  },
  {
    "name": "Cafeteria",
    "description": "Delicious Cafe cuisine",
    "cuisine": "Cafe",
    "latitude": 13.0133234,
    "longitude": 80.2360891,
    "address": "Chennai",
    "rating": 4.7,
    "delivery_time": 37,
    "delivery_fee": 3.2,
    "is_open": true,
    "phone": "",
    "website": "",
    "image": "https://images.unsplash.com/photo-1507854187?w=800&q=80"
  },
  {
    "name": "Sealord",
    "description": "Delicious General cuisine",
    "cuisine": "General",
    "latitude": 13.0592026,
    "longitude": 80.2740076,
    "address": "Chennai",
    "rating": 4.3,
    "delivery_time": 23,
    "delivery_fee": 1.8,
    "is_open": true,
    "phone": "",
    "website": "",
    "image": "https://images.unsplash.com/photo-1582216853?w=800&q=80"
  },
  {
    "name": "Candose Ice Cream Palour",
    "description": "Delicious Italian cuisine",
    "cuisine": "Italian",
    "latitude": 13.039421,
    "longitude": 80.2288253,
    "address": "28 Rameswaram Street, t.nagar",
    "rating": 4.9,
    "delivery_time": 29,
    "delivery_fee": 2.4,
    "is_open": true,
    "phone": "+914442178384",
    "website": "",
    "image": "https://images.unsplash.com/photo-1521399379?w=800&q=80"
  },
  {
    "name": "The Brick House Bistro",
    "description": "Delicious General cuisine",
    "cuisine": "General",
    "latitude": 13.0922676,
    "longitude": 80.2118114,
    "address": "No.9, S Block Anna Nagar 6th Avenue, Chennai",
    "rating": 4.6,
    "delivery_time": 36,
    "delivery_fee": 3.1,
    "is_open": true,
    "phone": "",
    "website": "",
    "image": "https://images.unsplash.com/photo-1538713756?w=800&q=80"
  },